{
  "period": "all",
  "total_points": 9280,
  "points": [
    {
      "lat": 43.25,
      "lon": -5.77,
      "events": 1480,
      "unique_balizas": 35,
      "main_carretera": "AS-375",
      "main_municipio": "Mieres",
      "main_provincia": "Asturias",
      "main_comunidad": "Principado de Asturias"
    },
    {
      "lat": 39.57,
      "lon": 2.71,
      "events": 775,
      "unique_balizas": 16,
      "main_carretera": "Ma-30",
      "main_municipio": "Palma",
      "main_provincia": "Illes Balears",
      "main_comunidad": "Illes Balears"
    },
    {
      "lat": 43.0,
      "lon": -4.14,
      "events": 682,
      "unique_balizas": 15,
      "main_carretera": "N-611",
      "main_municipio": "Reinosa",
      "main_provincia": "Cantabria",
      "main_comunidad": "Cantabria"
    },
    {
      "lat": 43.3,
      "lon": -8.37,
      "events": 664,
      "unique_balizas": 25,
      "main_carretera": "N-550",
      "main_municipio": "Culleredo",
      "main_provincia": "A Coruña",
      "main_comunidad": "Galicia"
    },
    {
      "lat": 42.51,
      "lon": -5.89,
      "events": 516,
      "unique_balizas": 11,
      "main_carretera": "LE-420",
      "main_municipio": "Benavides",
      "main_provincia": "León",
      "main_comunidad": "Castilla y León"
    },
    {
      "lat": 41.68,
      "lon": -0.91,
      "events": 510,
      "unique_balizas": 11,
      "main_carretera": "A-2",
      "main_municipio": "Zaragoza",
      "main_provincia": "Zaragoza",
      "main_comunidad": "Aragón"
    },
    {
      "lat": 40.38,
      "lon": -3.6,
      "events": 485,
      "unique_balizas": 12,
      "main_carretera": "M-45",
      "main_municipio": "Madrid",
      "main_provincia": "Madrid",
      "main_comunidad": "Comunidad de Madrid"
    },
    {
      "lat": 40.36,
      "lon": -3.82,
      "events": 481,
      "unique_balizas": 11,
      "main_carretera": "A-5",
      "main_municipio": "Alcorcón",
      "main_provincia": "Madrid",
      "main_comunidad": "Comunidad de Madrid"
    },
    {
      "lat": 40.36,
      "lon": -3.68,
      "events": 439,
      "unique_balizas": 14,
      "main_carretera": "M-40",
      "main_municipio": "Madrid",
      "main_provincia": "Madrid",
      "main_comunidad": "Comunidad de Madrid"
    },
    {
      "lat": 38.43,
      "lon": -0.4,
      "events": 429,
      "unique_balizas": 14,
      "main_carretera": "N-332",
      "main_municipio": "el Campello",
      "main_provincia": "Alacant/Alicante",
      "main_comunidad": "Comunitat Valenciana"
    },
    {
      "lat": 43.35,
      "lon": -3.94,
      "events": 428,
      "unique_balizas": 10,
      "main_carretera": "N-623",
      "main_municipio": "Piélagos",
      "main_provincia": "Cantabria",
      "main_comunidad": "Cantabria"
    },
    {
      "lat": 42.0,
      "lon": -6.16,
      "events": 425,
      "unique_balizas": 9,
      "main_carretera": "N-525",
      "main_municipio": "Vega de Tera",
      "main_provincia": "Zamora",
      "main_comunidad": "Castilla y León"
    },
    {
      "lat": 36.51,
      "lon": -4.86,
      "events": 418,
      "unique_balizas": 10,
      "main_carretera": "A-7",
      "main_municipio": "Marbella",
      "main_provincia": "Málaga",
      "main_comunidad": "Andalucía"
    },
    {
      "lat": 42.18,
      "lon": -8.5,
      "events": 408,
      "unique_balizas": 13,
      "main_carretera": "N-120",
      "main_municipio": "Ponteareas",
      "main_provincia": "Pontevedra",
      "main_comunidad": "Galicia"
    },
    {
      "lat": 36.73,
      "lon": -4.31,
      "events": 404,
      "unique_balizas": 8,
      "main_carretera": "MA-3202",
      "main_municipio": "Málaga",
      "main_provincia": "Málaga",
      "main_comunidad": "Andalucía"
    },
    {
      "lat": 37.34,
      "lon": -5.98,
      "events": 396,
      "unique_balizas": 11,
      "main_carretera": "A-4",
      "main_municipio": "Sevilla",
      "main_provincia": "Sevilla",
      "main_comunidad": "Andalucía"
    },
    {
      "lat": 40.2,
      "lon": -4.94,
      "events": 389,
      "unique_balizas": 10,
      "main_carretera": "CL-501",
      "main_municipio": "Lanzahíta",
      "main_provincia": "Ávila",
      "main_comunidad": "Castilla y León"
    },
    {
      "lat": 28.08,
      "lon": -15.44,
      "events": 388,
      "unique_balizas": 9,
      "main_carretera": "GC-110",
      "main_municipio": "Las Palmas de Gran Canaria",
      "main_provincia": "Las Palmas",
      "main_comunidad": "Canarias"
    },
    {
      "lat": 36.71,
      "lon": -4.47,
      "events": 363,
      "unique_balizas": 11,
      "main_carretera": "A-357",
      "main_municipio": "Málaga",
      "main_provincia": "Málaga",
      "main_comunidad": "Andalucía"
    },
    {
      "lat": 36.7,
      "lon": -4.49,
      "events": 360,
      "unique_balizas": 9,
      "main_carretera": "A-7054R",
      "main_municipio": "Málaga",
      "main_provincia": "Málaga",
      "main_comunidad": "Andalucía"
    },
    {
      "lat": 42.79,
      "lon": -0.53,
      "events": 346,
      "unique_balizas": 7,
      "main_carretera": "N-330b",
      "main_municipio": "Aisa",
      "main_provincia": "Huesca",
      "main_comunidad": "Aragón"
    },
    {
      "lat": 36.96,
      "lon": -3.86,
      "events": 344,
      "unique_balizas": 13,
      "main_carretera": "GR-3307",
      "main_municipio": "Fornes",
      "main_provincia": "Granada",
      "main_comunidad": "Andalucía"
    },
    {
      "lat": 40.25,
      "lon": -3.69,
      "events": 330,
      "unique_balizas": 8,
      "main_carretera": "A-4",
      "main_municipio": "Pinto",
      "main_provincia": "Madrid",
      "main_comunidad": "Comunidad de Madrid"
    },
    {
      "lat": 40.02,
      "lon": -4.43,
      "events": 313,
      "unique_balizas": 6,
      "main_carretera": "CM-4024",
      "main_municipio": "Santa Olalla",
      "main_provincia": "Toledo",
      "main_comunidad": "Castilla-La Mancha"
    },
    {
      "lat": 41.91,
      "lon": -1.88,
      "events": 311,
      "unique_balizas": 8,
      "main_carretera": "SO-P-1016",
      "main_municipio": "Ágreda",
      "main_provincia": "Soria",
      "main_comunidad": "Castilla y León"
    },
    {
      "lat": 37.28,
      "lon": -6.91,
      "events": 311,
      "unique_balizas": 11,
      "main_carretera": "A-5000",
      "main_municipio": "Huelva",
      "main_provincia": "Huelva",
      "main_comunidad": "Andalucía"
    },
    {
      "lat": 37.17,
      "lon": -3.61,
      "events": 308,
      "unique_balizas": 12,
      "main_carretera": "GR-30",
      "main_municipio": "Granada",
      "main_provincia": "Granada",
      "main_comunidad": "Andalucía"
    },
    {
      "lat": 28.33,
      "lon": -16.38,
      "events": 305,
      "unique_balizas": 7,
      "main_carretera": "TF-1",
      "main_municipio": "Güímar",
      "main_provincia": "Santa Cruz de Tenerife",
      "main_comunidad": "Canarias"
    },
    {
      "lat": 38.6,
      "lon": -1.68,
      "events": 304,
      "unique_balizas": 8,
      "main_carretera": "N-301",
      "main_municipio": "Tobarra",
      "main_provincia": "Albacete",
      "main_comunidad": "Castilla-La Mancha"
    },
    {
      "lat": 28.43,
      "lon": -16.49,
      "events": 300,
      "unique_balizas": 9,
      "main_carretera": "TF-5",
      "main_municipio": "Santa Úrsula",
      "main_provincia": "Santa Cruz de Tenerife",
      "main_comunidad": "Canarias"
    },
    {
      "lat": 43.3,
      "lon": -7.34,
      "events": 297,
      "unique_balizas": 6,
      "main_carretera": "LU-P-4401",
      "main_municipio": "A Pastoriza",
      "main_provincia": "Lugo",
      "main_comunidad": "Galicia"
    },
    {
      "lat": 41.15,
      "lon": -4.49,
      "events": 291,
      "unique_balizas": 7,
      "main_carretera": "SG-342",
      "main_municipio": "Nava de la Asunción",
      "main_provincia": "Segovia",
      "main_comunidad": "Castilla y León"
    },
    {
      "lat": 39.85,
      "lon": -5.68,
      "events": 289,
      "unique_balizas": 6,
      "main_carretera": "CC-253",
      "main_municipio": "Saucedilla",
      "main_provincia": "Cáceres",
      "main_comunidad": "Extremadura"
    },
    {
      "lat": 43.24,
      "lon": -5.78,
      "events": 289,
      "unique_balizas": 8,
      "main_carretera": "A-66",
      "main_municipio": "Mieres",
      "main_provincia": "Asturias",
      "main_comunidad": "Principado de Asturias"
    },
    {
      "lat": 39.98,
      "lon": -4.29,
      "events": 280,
      "unique_balizas": 6,
      "main_carretera": "TO-1029",
      "main_municipio": "Torrijos",
      "main_provincia": "Toledo",
      "main_comunidad": "Castilla-La Mancha"
    },
    {
      "lat": 36.61,
      "lon": -6.19,
      "events": 275,
      "unique_balizas": 7,
      "main_carretera": "A-4",
      "main_municipio": "El Puerto de Santa María",
      "main_provincia": "Cádiz",
      "main_comunidad": "Andalucía"
    },
    {
      "lat": 28.13,
      "lon": -15.43,
      "events": 275,
      "unique_balizas": 11,
      "main_carretera": "GC-1 AM",
      "main_municipio": "Las Palmas de Gran Canaria",
      "main_provincia": "Las Palmas",
      "main_comunidad": "Canarias"
    },
    {
      "lat": 36.6,
      "lon": -4.64,
      "events": 274,
      "unique_balizas": 5,
      "main_carretera": "A-387",
      "main_municipio": "Mijas",
      "main_provincia": "Málaga",
      "main_comunidad": "Andalucía"
    },
    {
      "lat": 40.48,
      "lon": -3.64,
      "events": 264,
      "unique_balizas": 9,
      "main_carretera": "M-40",
      "main_municipio": "Madrid",
      "main_provincia": "Madrid",
      "main_comunidad": "Comunidad de Madrid"
    },
    {
      "lat": 36.93,
      "lon": -2.14,
      "events": 260,
      "unique_balizas": 8,
      "main_carretera": "AL-3111",
      "main_municipio": "Níjar",
      "main_provincia": "Almería",
      "main_comunidad": "Andalucía"
    },
    {
      "lat": 42.18,
      "lon": -8.51,
      "events": 259,
      "unique_balizas": 9,
      "main_carretera": "N-120",
      "main_municipio": "Ponteareas",
      "main_provincia": "Pontevedra",
      "main_comunidad": "Galicia"
    },
    {
      "lat": 38.7,
      "lon": -2.69,
      "events": 255,
      "unique_balizas": 6,
      "main_carretera": "CM-412",
      "main_municipio": "Villanueva de la Fuente",
      "main_provincia": "Ciudad Real",
      "main_comunidad": "Castilla-La Mancha"
    },
    {
      "lat": 40.63,
      "lon": -3.99,
      "events": 254,
      "unique_balizas": 10,
      "main_carretera": "A-6",
      "main_municipio": "Collado Villalba",
      "main_provincia": "Madrid",
      "main_comunidad": "Comunidad de Madrid"
    },
    {
      "lat": 40.02,
      "lon": -0.03,
      "events": 250,
      "unique_balizas": 5,
      "main_carretera": "N-340a",
      "main_municipio": "Castelló de la Plana",
      "main_provincia": "Castelló/Castellón",
      "main_comunidad": "Comunitat Valenciana"
    },
    {
      "lat": 28.14,
      "lon": -15.51,
      "events": 247,
      "unique_balizas": 8,
      "main_carretera": "GC-20",
      "main_municipio": "Arucas",
      "main_provincia": "Las Palmas",
      "main_comunidad": "Canarias"
    },
    {
      "lat": 28.45,
      "lon": -16.28,
      "events": 245,
      "unique_balizas": 12,
      "main_carretera": "TF-5",
      "main_municipio": "Santa Cruz de Tenerife",
      "main_provincia": "Santa Cruz de Tenerife",
      "main_comunidad": "Canarias"
    },
    {
      "lat": 37.6,
      "lon": -4.67,
      "events": 244,
      "unique_balizas": 12,
      "main_carretera": "N-331",
      "main_municipio": "Montilla",
      "main_provincia": "Córdoba",
      "main_comunidad": "Andalucía"
    },
    {
      "lat": 40.45,
      "lon": -3.52,
      "events": 234,
      "unique_balizas": 8,
      "main_carretera": "A-2",
      "main_municipio": "San Fernando de Henares",
      "main_provincia": "Madrid",
      "main_comunidad": "Comunidad de Madrid"
    },
    {
      "lat": 43.14,
      "lon": -7.49,
      "events": 230,
      "unique_balizas": 4,
      "main_carretera": "LU-113",
      "main_municipio": "Castro de Rei",
      "main_provincia": "Lugo",
      "main_comunidad": "Galicia"
    },
    {
      "lat": 42.32,
      "lon": -8.81,
      "events": 226,
      "unique_balizas": 6,
      "main_carretera": "EP-1308",
      "main_municipio": "Bueu",
      "main_provincia": "Pontevedra",
      "main_comunidad": "Galicia"
    },
    {
      "lat": 38.45,
      "lon": -2.05,
      "events": 225,
      "unique_balizas": 6,
      "main_carretera": "CM-412",
      "main_municipio": "Elche de la Sierra",
      "main_provincia": "Albacete",
      "main_comunidad": "Castilla-La Mancha"
    },
    {
      "lat": 37.25,
      "lon": -3.74,
      "events": 224,
      "unique_balizas": 6,
      "main_carretera": "N-432",
      "main_municipio": "Pinos Puente",
      "main_provincia": "Granada",
      "main_comunidad": "Andalucía"
    },
    {
      "lat": 38.71,
      "lon": -0.99,
      "events": 224,
      "unique_balizas": 6,
      "main_carretera": "N-344",
      "main_municipio": "Caudete",
      "main_provincia": "Albacete",
      "main_comunidad": "Castilla-La Mancha"
    },
    {
      "lat": 40.16,
      "lon": -3.66,
      "events": 224,
      "unique_balizas": 7,
      "main_carretera": "M-404",
      "main_municipio": "Valdemoro",
      "main_provincia": "Madrid",
      "main_comunidad": "Comunidad de Madrid"
    },
    {
      "lat": 36.68,
      "lon": -4.53,
      "events": 224,
      "unique_balizas": 5,
      "main_carretera": "A-7",
      "main_municipio": "Alhaurín de la Torre",
      "main_provincia": "Málaga",
      "main_comunidad": "Andalucía"
    },
    {
      "lat": 36.17,
      "lon": -5.48,
      "events": 222,
      "unique_balizas": 7,
      "main_carretera": "A-381",
      "main_municipio": "Los Barrios",
      "main_provincia": "Cádiz",
      "main_comunidad": "Andalucía"
    },
    {
      "lat": 42.17,
      "lon": -8.51,
      "events": 219,
      "unique_balizas": 8,
      "main_carretera": "PO-403",
      "main_municipio": "Ponteareas",
      "main_provincia": "Pontevedra",
      "main_comunidad": "Galicia"
    },
    {
      "lat": 42.17,
      "lon": -8.59,
      "events": 218,
      "unique_balizas": 6,
      "main_carretera": "N-120",
      "main_municipio": "O Porriño",
      "main_provincia": "Pontevedra",
      "main_comunidad": "Galicia"
    },
    {
      "lat": 42.99,
      "lon": -4.14,
      "events": 217,
      "unique_balizas": 7,
      "main_carretera": "CA-730",
      "main_municipio": "Campoo de Enmedio",
      "main_provincia": "Cantabria",
      "main_comunidad": "Cantabria"
    },
    {
      "lat": 36.47,
      "lon": -6.21,
      "events": 217,
      "unique_balizas": 5,
      "main_carretera": "CA-33",
      "main_municipio": "San Fernando",
      "main_provincia": "Cádiz",
      "main_comunidad": "Andalucía"
    },
    {
      "lat": 37.42,
      "lon": -6.01,
      "events": 213,
      "unique_balizas": 8,
      "main_carretera": "SE-20",
      "main_municipio": "Sevilla",
      "main_provincia": "Sevilla",
      "main_comunidad": "Andalucía"
    },
    {
      "lat": 28.38,
      "lon": -16.52,
      "events": 213,
      "unique_balizas": 5,
      "main_carretera": "TF-21",
      "main_municipio": "La Orotava",
      "main_provincia": "Santa Cruz de Tenerife",
      "main_comunidad": "Canarias"
    },
    {
      "lat": 37.05,
      "lon": -3.65,
      "events": 212,
      "unique_balizas": 5,
      "main_carretera": "A-44",
      "main_municipio": "Padul",
      "main_provincia": "Granada",
      "main_comunidad": "Andalucía"
    },
    {
      "lat": 40.39,
      "lon": -3.62,
      "events": 211,
      "unique_balizas": 7,
      "main_carretera": "A-3",
      "main_municipio": "Madrid",
      "main_provincia": "Madrid",
      "main_comunidad": "Comunidad de Madrid"
    },
    {
      "lat": 42.36,
      "lon": -5.75,
      "events": 210,
      "unique_balizas": 7,
      "main_carretera": "CL-621",
      "main_municipio": "Santa María del Páramo",
      "main_provincia": "León",
      "main_comunidad": "Castilla y León"
    },
    {
      "lat": 28.05,
      "lon": -16.61,
      "events": 208,
      "unique_balizas": 9,
      "main_carretera": "TF-1",
      "main_municipio": "San Miguel de Abona",
      "main_provincia": "Santa Cruz de Tenerife",
      "main_comunidad": "Canarias"
    },
    {
      "lat": 28.1,
      "lon": -16.73,
      "events": 208,
      "unique_balizas": 9,
      "main_carretera": "TF-1",
      "main_municipio": "Adeje",
      "main_provincia": "Santa Cruz de Tenerife",
      "main_comunidad": "Canarias"
    },
    {
      "lat": 28.44,
      "lon": -16.28,
      "events": 207,
      "unique_balizas": 9,
      "main_carretera": "TF-1",
      "main_municipio": "Santa Cruz de Tenerife",
      "main_provincia": "Santa Cruz de Tenerife",
      "main_comunidad": "Canarias"
    },
    {
      "lat": 40.47,
      "lon": -3.89,
      "events": 207,
      "unique_balizas": 7,
      "main_carretera": "M-50",
      "main_municipio": "Majadahonda",
      "main_provincia": "Madrid",
      "main_comunidad": "Comunidad de Madrid"
    },
    {
      "lat": 42.46,
      "lon": -6.06,
      "events": 207,
      "unique_balizas": 5,
      "main_carretera": "N-120a",
      "main_municipio": "Astorga",
      "main_provincia": "León",
      "main_comunidad": "Castilla y León"
    },
    {
      "lat": 37.39,
      "lon": -6.03,
      "events": 206,
      "unique_balizas": 7,
      "main_carretera": "A-49",
      "main_municipio": "Camas",
      "main_provincia": "Sevilla",
      "main_comunidad": "Andalucía"
    },
    {
      "lat": 38.45,
      "lon": -2.04,
      "events": 205,
      "unique_balizas": 7,
      "main_carretera": "CM-412",
      "main_municipio": "Elche de la Sierra",
      "main_provincia": "Albacete",
      "main_comunidad": "Castilla-La Mancha"
    },
    {
      "lat": 40.01,
      "lon": -4.26,
      "events": 204,
      "unique_balizas": 5,
      "main_carretera": "TO-3927",
      "main_municipio": "Novés",
      "main_provincia": "Toledo",
      "main_comunidad": "Castilla-La Mancha"
    },
    {
      "lat": 38.92,
      "lon": 1.43,
      "events": 203,
      "unique_balizas": 9,
      "main_carretera": "EI-600",
      "main_municipio": "Eivissa",
      "main_provincia": "Illes Balears",
      "main_comunidad": "Illes Balears"
    },
    {
      "lat": 42.43,
      "lon": -3.68,
      "events": 202,
      "unique_balizas": 4,
      "main_carretera": "N-623",
      "main_municipio": "Merindad de Río Ubierna",
      "main_provincia": "Burgos",
      "main_comunidad": "Castilla y León"
    },
    {
      "lat": 40.08,
      "lon": -3.87,
      "events": 201,
      "unique_balizas": 5,
      "main_carretera": "CM-4004",
      "main_municipio": "Numancia de la Sagra",
      "main_provincia": "Toledo",
      "main_comunidad": "Castilla-La Mancha"
    },
    {
      "lat": 42.52,
      "lon": -0.37,
      "events": 199,
      "unique_balizas": 4,
      "main_carretera": "N-330a",
      "main_municipio": "Sabiñánigo",
      "main_provincia": "Huesca",
      "main_comunidad": "Aragón"
    },
    {
      "lat": 27.94,
      "lon": -15.39,
      "events": 197,
      "unique_balizas": 6,
      "main_carretera": "GC-1",
      "main_municipio": "Telde",
      "main_provincia": "Las Palmas",
      "main_comunidad": "Canarias"
    },
    {
      "lat": 40.4,
      "lon": -3.76,
      "events": 196,
      "unique_balizas": 4,
      "main_carretera": "A-5",
      "main_municipio": "Madrid",
      "main_provincia": "Madrid",
      "main_comunidad": "Comunidad de Madrid"
    },
    {
      "lat": 38.03,
      "lon": -1.16,
      "events": 196,
      "unique_balizas": 8,
      "main_carretera": "A-7",
      "main_municipio": "Murcia",
      "main_provincia": "Murcia",
      "main_comunidad": "Región de Murcia"
    },
    {
      "lat": 40.32,
      "lon": -3.51,
      "events": 193,
      "unique_balizas": 5,
      "main_carretera": "A-3",
      "main_municipio": "Rivas-Vaciamadrid",
      "main_provincia": "Madrid",
      "main_comunidad": "Comunidad de Madrid"
    },
    {
      "lat": 38.37,
      "lon": -0.46,
      "events": 192,
      "unique_balizas": 5,
      "main_carretera": "N-332",
      "main_municipio": "Alacant/Alicante",
      "main_provincia": "Alacant/Alicante",
      "main_comunidad": "Comunitat Valenciana"
    },
    {
      "lat": 36.27,
      "lon": -5.96,
      "events": 191,
      "unique_balizas": 4,
      "main_carretera": "A-396",
      "main_municipio": "Vejer de la Frontera",
      "main_provincia": "Cádiz",
      "main_comunidad": "Andalucía"
    },
    {
      "lat": 43.33,
      "lon": -8.39,
      "events": 191,
      "unique_balizas": 7,
      "main_carretera": "N-550",
      "main_municipio": "A Coruña",
      "main_provincia": "A Coruña",
      "main_comunidad": "Galicia"
    },
    {
      "lat": 37.56,
      "lon": -3.63,
      "events": 190,
      "unique_balizas": 5,
      "main_carretera": "A-6026",
      "main_municipio": "Campillo de Arenas",
      "main_provincia": "Jaén",
      "main_comunidad": "Andalucía"
    },
    {
      "lat": 40.39,
      "lon": -3.83,
      "events": 188,
      "unique_balizas": 7,
      "main_carretera": "M-40",
      "main_municipio": "Madrid",
      "main_provincia": "Madrid",
      "main_comunidad": "Comunidad de Madrid"
    },
    {
      "lat": 40.33,
      "lon": -3.73,
      "events": 188,
      "unique_balizas": 5,
      "main_carretera": "A-42",
      "main_municipio": "Getafe",
      "main_provincia": "Madrid",
      "main_comunidad": "Comunidad de Madrid"
    },
    {
      "lat": 42.77,
      "lon": -9.06,
      "events": 188,
      "unique_balizas": 4,
      "main_carretera": "AC-550",
      "main_municipio": "Muros",
      "main_provincia": "A Coruña",
      "main_comunidad": "Galicia"
    },
    {
      "lat": 40.38,
      "lon": -0.63,
      "events": 188,
      "unique_balizas": 6,
      "main_carretera": "A-2705",
      "main_municipio": "Valdelinares",
      "main_provincia": "Teruel",
      "main_comunidad": "Aragón"
    },
    {
      "lat": 37.37,
      "lon": -6.03,
      "events": 188,
      "unique_balizas": 7,
      "main_carretera": "A-8066",
      "main_municipio": "San Juan de Aznalfarache",
      "main_provincia": "Sevilla",
      "main_comunidad": "Andalucía"
    },
    {
      "lat": 37.3,
      "lon": -4.83,
      "events": 187,
      "unique_balizas": 5,
      "main_carretera": "SE-9213",
      "main_municipio": "Estepa",
      "main_provincia": "Sevilla",
      "main_comunidad": "Andalucía"
    },
    {
      "lat": 40.55,
      "lon": -3.9,
      "events": 186,
      "unique_balizas": 6,
      "main_carretera": "A-6",
      "main_municipio": "Las Rozas de Madrid",
      "main_provincia": "Madrid",
      "main_comunidad": "Comunidad de Madrid"
    },
    {
      "lat": 40.27,
      "lon": -3.75,
      "events": 185,
      "unique_balizas": 9,
      "main_carretera": "M-506",
      "main_municipio": "Fuenlabrada",
      "main_provincia": "Madrid",
      "main_comunidad": "Comunidad de Madrid"
    },
    {
      "lat": 28.45,
      "lon": -16.29,
      "events": 185,
      "unique_balizas": 8,
      "main_carretera": "TF-5",
      "main_municipio": "Santa Cruz de Tenerife",
      "main_provincia": "Santa Cruz de Tenerife",
      "main_comunidad": "Canarias"
    },
    {
      "lat": 38.91,
      "lon": 1.42,
      "events": 185,
      "unique_balizas": 6,
      "main_carretera": "EI-800a",
      "main_municipio": "Eivissa",
      "main_provincia": "Illes Balears",
      "main_comunidad": "Illes Balears"
    },
    {
      "lat": 39.48,
      "lon": -0.35,
      "events": 185,
      "unique_balizas": 5,
      "main_carretera": "V-21",
      "main_municipio": "València",
      "main_provincia": "València/Valencia",
      "main_comunidad": "Comunitat Valenciana"
    },
    {
      "lat": 42.08,
      "lon": -4.21,
      "events": 185,
      "unique_balizas": 5,
      "main_carretera": "A-62",
      "main_municipio": "Quintana del Puente",
      "main_provincia": "Palencia",
      "main_comunidad": "Castilla y León"
    },
    {
      "lat": 37.14,
      "lon": -3.67,
      "events": 185,
      "unique_balizas": 5,
      "main_carretera": "GR-3311",
      "main_municipio": "Las Gabias",
      "main_provincia": "Granada",
      "main_comunidad": "Andalucía"
    },
    {
      "lat": 41.5,
      "lon": -0.16,
      "events": 183,
      "unique_balizas": 5,
      "main_carretera": "N-2",
      "main_municipio": "Bujaraloz",
      "main_provincia": "Zaragoza",
      "main_comunidad": "Aragón"
    },
    {
      "lat": 40.7,
      "lon": -4.13,
      "events": 182,
      "unique_balizas": 5,
      "main_carretera": "N-6",
      "main_municipio": "Guadarrama",
      "main_provincia": "Madrid",
      "main_comunidad": "Comunidad de Madrid"
    },
    {
      "lat": 28.47,
      "lon": -16.42,
      "events": 181,
      "unique_balizas": 6,
      "main_carretera": "TF-5",
      "main_municipio": "El Sauzal",
      "main_provincia": "Santa Cruz de Tenerife",
      "main_comunidad": "Canarias"
    },
    {
      "lat": 43.43,
      "lon": -3.84,
      "events": 181,
      "unique_balizas": 6,
      "main_carretera": "S-10",
      "main_municipio": "Camargo",
      "main_provincia": "Cantabria",
      "main_comunidad": "Cantabria"
    },
    {
      "lat": 40.33,
      "lon": -3.81,
      "events": 181,
      "unique_balizas": 4,
      "main_carretera": "R-5",
      "main_municipio": "Leganés",
      "main_provincia": "Madrid",
      "main_comunidad": "Comunidad de Madrid"
    },
    {
      "lat": 37.26,
      "lon": -6.92,
      "events": 181,
      "unique_balizas": 9,
      "main_carretera": "H-30",
      "main_municipio": "Huelva",
      "main_provincia": "Huelva",
      "main_comunidad": "Andalucía"
    },
    {
      "lat": 40.36,
      "lon": -3.79,
      "events": 181,
      "unique_balizas": 8,
      "main_carretera": "M-40",
      "main_municipio": "Madrid",
      "main_provincia": "Madrid",
      "main_comunidad": "Comunidad de Madrid"
    },
    {
      "lat": 36.19,
      "lon": -5.92,
      "events": 180,
      "unique_balizas": 5,
      "main_carretera": "A-2233",
      "main_municipio": "Barbate",
      "main_provincia": "Cádiz",
      "main_comunidad": "Andalucía"
    },
    {
      "lat": 28.45,
      "lon": -16.45,
      "events": 179,
      "unique_balizas": 4,
      "main_carretera": "TF-215",
      "main_municipio": "La Matanza de Acentejo",
      "main_provincia": "Santa Cruz de Tenerife",
      "main_comunidad": "Canarias"
    },
    {
      "lat": 37.58,
      "lon": -4.65,
      "events": 179,
      "unique_balizas": 6,
      "main_carretera": "A-309a",
      "main_municipio": "Montilla",
      "main_provincia": "Córdoba",
      "main_comunidad": "Andalucía"
    },
    {
      "lat": 38.96,
      "lon": -2.76,
      "events": 179,
      "unique_balizas": 4,
      "main_carretera": "AB-611",
      "main_municipio": "Ossa de Montiel",
      "main_provincia": "Albacete",
      "main_comunidad": "Castilla-La Mancha"
    },
    {
      "lat": 42.44,
      "lon": 0.07,
      "events": 179,
      "unique_balizas": 5,
      "main_carretera": "N-260",
      "main_municipio": "Boltaña",
      "main_provincia": "Huesca",
      "main_comunidad": "Aragón"
    },
    {
      "lat": 42.05,
      "lon": -6.64,
      "events": 178,
      "unique_balizas": 5,
      "main_carretera": "ZA-925",
      "main_municipio": "Puebla de Sanabria",
      "main_provincia": "Zamora",
      "main_comunidad": "Castilla y León"
    },
    {
      "lat": 41.72,
      "lon": -5.25,
      "events": 177,
      "unique_balizas": 5,
      "main_carretera": "VA-705",
      "main_municipio": "Villardefrades",
      "main_provincia": "Valladolid",
      "main_comunidad": "Castilla y León"
    },
    {
      "lat": 40.99,
      "lon": -5.65,
      "events": 177,
      "unique_balizas": 6,
      "main_carretera": "CM-545",
      "main_municipio": "Villares de la Reina",
      "main_provincia": "Salamanca",
      "main_comunidad": "Castilla y León"
    },
    {
      "lat": 42.21,
      "lon": -8.67,
      "events": 177,
      "unique_balizas": 5,
      "main_carretera": "PO-371",
      "main_municipio": "Vigo",
      "main_provincia": "Pontevedra",
      "main_comunidad": "Galicia"
    },
    {
      "lat": 36.16,
      "lon": -5.46,
      "events": 177,
      "unique_balizas": 6,
      "main_carretera": "A-7",
      "main_municipio": "Algeciras",
      "main_provincia": "Cádiz",
      "main_comunidad": "Andalucía"
    },
    {
      "lat": 39.81,
      "lon": -4.02,
      "events": 177,
      "unique_balizas": 4,
      "main_carretera": "CM-40",
      "main_municipio": "Cobisa",
      "main_provincia": "Toledo",
      "main_comunidad": "Castilla-La Mancha"
    },
    {
      "lat": 42.59,
      "lon": -5.58,
      "events": 176,
      "unique_balizas": 5,
      "main_carretera": "N-120",
      "main_municipio": "León",
      "main_provincia": "León",
      "main_comunidad": "Castilla y León"
    },
    {
      "lat": 40.28,
      "lon": -3.69,
      "events": 176,
      "unique_balizas": 7,
      "main_carretera": "A-4",
      "main_municipio": "Getafe",
      "main_provincia": "Madrid",
      "main_comunidad": "Comunidad de Madrid"
    },
    {
      "lat": 39.52,
      "lon": -0.46,
      "events": 176,
      "unique_balizas": 8,
      "main_carretera": "CV-368",
      "main_municipio": "Paterna",
      "main_provincia": "València/Valencia",
      "main_comunidad": "Comunitat Valenciana"
    },
    {
      "lat": 28.01,
      "lon": -15.39,
      "events": 176,
      "unique_balizas": 6,
      "main_carretera": "GC-1",
      "main_municipio": "Telde",
      "main_provincia": "Las Palmas",
      "main_comunidad": "Canarias"
    },
    {
      "lat": 40.36,
      "lon": -3.69,
      "events": 174,
      "unique_balizas": 7,
      "main_carretera": "M-40",
      "main_municipio": "Madrid",
      "main_provincia": "Madrid",
      "main_comunidad": "Comunidad de Madrid"
    },
    {
      "lat": 37.27,
      "lon": -6.91,
      "events": 173,
      "unique_balizas": 6,
      "main_carretera": "A-5000",
      "main_municipio": "Huelva",
      "main_provincia": "Huelva",
      "main_comunidad": "Andalucía"
    },
    {
      "lat": 37.66,
      "lon": -1.71,
      "events": 173,
      "unique_balizas": 7,
      "main_carretera": "RM-D11",
      "main_municipio": "Lorca",
      "main_provincia": "Murcia",
      "main_comunidad": "Región de Murcia"
    },
    {
      "lat": 37.18,
      "lon": -3.62,
      "events": 172,
      "unique_balizas": 8,
      "main_carretera": "GR-30",
      "main_municipio": "Granada",
      "main_provincia": "Granada",
      "main_comunidad": "Andalucía"
    },
    {
      "lat": 38.38,
      "lon": -0.46,
      "events": 170,
      "unique_balizas": 5,
      "main_carretera": "A-70",
      "main_municipio": "Alacant/Alicante",
      "main_provincia": "Alacant/Alicante",
      "main_comunidad": "Comunitat Valenciana"
    },
    {
      "lat": 40.35,
      "lon": -3.85,
      "events": 170,
      "unique_balizas": 6,
      "main_carretera": "A-5",
      "main_municipio": "Alcorcón",
      "main_provincia": "Madrid",
      "main_comunidad": "Comunidad de Madrid"
    },
    {
      "lat": 40.45,
      "lon": -3.57,
      "events": 170,
      "unique_balizas": 7,
      "main_carretera": "A-2",
      "main_municipio": "Madrid",
      "main_provincia": "Madrid",
      "main_comunidad": "Comunidad de Madrid"
    },
    {
      "lat": 37.77,
      "lon": -0.84,
      "events": 169,
      "unique_balizas": 3,
      "main_carretera": "N-332",
      "main_municipio": "Los Alcázares",
      "main_provincia": "Murcia",
      "main_comunidad": "Región de Murcia"
    },
    {
      "lat": 38.87,
      "lon": -6.97,
      "events": 169,
      "unique_balizas": 5,
      "main_carretera": "BA-20",
      "main_municipio": "Badajoz",
      "main_provincia": "Badajoz",
      "main_comunidad": "Extremadura"
    },
    {
      "lat": 40.36,
      "lon": -3.83,
      "events": 169,
      "unique_balizas": 6,
      "main_carretera": "M-501a",
      "main_municipio": "Alcorcón",
      "main_provincia": "Madrid",
      "main_comunidad": "Comunidad de Madrid"
    },
    {
      "lat": 39.47,
      "lon": -6.38,
      "events": 168,
      "unique_balizas": 4,
      "main_carretera": "N-521",
      "main_municipio": "Cáceres",
      "main_provincia": "Cáceres",
      "main_comunidad": "Extremadura"
    },
    {
      "lat": 37.29,
      "lon": -6.3,
      "events": 168,
      "unique_balizas": 4,
      "main_carretera": "A-8060",
      "main_municipio": "Pilas",
      "main_provincia": "Sevilla",
      "main_comunidad": "Andalucía"
    },
    {
      "lat": 41.6,
      "lon": -4.66,
      "events": 167,
      "unique_balizas": 7,
      "main_carretera": "A-11",
      "main_municipio": "Cistérniga",
      "main_provincia": "Valladolid",
      "main_comunidad": "Castilla y León"
    },
    {
      "lat": 40.62,
      "lon": -3.16,
      "events": 167,
      "unique_balizas": 6,
      "main_carretera": "A-2",
      "main_municipio": "Guadalajara",
      "main_provincia": "Guadalajara",
      "main_comunidad": "Castilla-La Mancha"
    },
    {
      "lat": 42.19,
      "lon": -8.64,
      "events": 167,
      "unique_balizas": 5,
      "main_carretera": "A-55",
      "main_municipio": "Mos",
      "main_provincia": "Pontevedra",
      "main_comunidad": "Galicia"
    },
    {
      "lat": 40.45,
      "lon": -3.59,
      "events": 166,
      "unique_balizas": 7,
      "main_carretera": "M-14",
      "main_municipio": "Madrid",
      "main_provincia": "Madrid",
      "main_comunidad": "Comunidad de Madrid"
    },
    {
      "lat": 42.35,
      "lon": -5.75,
      "events": 166,
      "unique_balizas": 3,
      "main_carretera": "CL-621",
      "main_municipio": "Santa María del Páramo",
      "main_provincia": "León",
      "main_comunidad": "Castilla y León"
    },
    {
      "lat": 37.15,
      "lon": -3.61,
      "events": 165,
      "unique_balizas": 9,
      "main_carretera": "N-323a",
      "main_municipio": "Armilla",
      "main_provincia": "Granada",
      "main_comunidad": "Andalucía"
    },
    {
      "lat": 43.46,
      "lon": -3.83,
      "events": 165,
      "unique_balizas": 5,
      "main_carretera": "S-21",
      "main_municipio": "Santander",
      "main_provincia": "Cantabria",
      "main_comunidad": "Cantabria"
    },
    {
      "lat": 28.38,
      "lon": -16.36,
      "events": 164,
      "unique_balizas": 4,
      "main_carretera": "TF-1",
      "main_municipio": "Candelaria",
      "main_provincia": "Santa Cruz de Tenerife",
      "main_comunidad": "Canarias"
    },
    {
      "lat": 39.44,
      "lon": -1.94,
      "events": 164,
      "unique_balizas": 3,
      "main_carretera": "CM-220",
      "main_municipio": "Villanueva de la Jara",
      "main_provincia": "Cuenca",
      "main_comunidad": "Castilla-La Mancha"
    },
    {
      "lat": 42.35,
      "lon": -3.69,
      "events": 164,
      "unique_balizas": 5,
      "main_carretera": "N-623",
      "main_municipio": "Burgos",
      "main_provincia": "Burgos",
      "main_comunidad": "Castilla y León"
    },
    {
      "lat": 27.76,
      "lon": -15.61,
      "events": 164,
      "unique_balizas": 4,
      "main_carretera": "GC-1",
      "main_municipio": "San Bartolomé de Tirajana",
      "main_provincia": "Las Palmas",
      "main_comunidad": "Canarias"
    },
    {
      "lat": 43.32,
      "lon": -8.36,
      "events": 163,
      "unique_balizas": 7,
      "main_carretera": "AC-211",
      "main_municipio": "Cambre",
      "main_provincia": "A Coruña",
      "main_comunidad": "Galicia"
    },
    {
      "lat": 40.36,
      "lon": -3.72,
      "events": 163,
      "unique_balizas": 7,
      "main_carretera": "A-42",
      "main_municipio": "Madrid",
      "main_provincia": "Madrid",
      "main_comunidad": "Comunidad de Madrid"
    },
    {
      "lat": 39.95,
      "lon": -0.13,
      "events": 162,
      "unique_balizas": 3,
      "main_carretera": "AP-7",
      "main_municipio": "Vila-real",
      "main_provincia": "Castelló/Castellón",
      "main_comunidad": "Comunitat Valenciana"
    },
    {
      "lat": 28.41,
      "lon": -16.32,
      "events": 161,
      "unique_balizas": 4,
      "main_carretera": "TF-1",
      "main_municipio": "El Rosario",
      "main_provincia": "Santa Cruz de Tenerife",
      "main_comunidad": "Canarias"
    },
    {
      "lat": 37.38,
      "lon": -6.04,
      "events": 161,
      "unique_balizas": 5,
      "main_carretera": "A-49",
      "main_municipio": "Camas",
      "main_provincia": "Sevilla",
      "main_comunidad": "Andalucía"
    },
    {
      "lat": 40.36,
      "lon": -3.76,
      "events": 160,
      "unique_balizas": 6,
      "main_carretera": "M-40",
      "main_municipio": "Madrid",
      "main_provincia": "Madrid",
      "main_comunidad": "Comunidad de Madrid"
    },
    {
      "lat": 37.15,
      "lon": -3.59,
      "events": 160,
      "unique_balizas": 7,
      "main_carretera": "A-395",
      "main_municipio": "Granada",
      "main_provincia": "Granada",
      "main_comunidad": "Andalucía"
    },
    {
      "lat": 40.69,
      "lon": -3.68,
      "events": 160,
      "unique_balizas": 3,
      "main_carretera": "M-104",
      "main_municipio": "Colmenar Viejo",
      "main_provincia": "Madrid",
      "main_comunidad": "Comunidad de Madrid"
    },
    {
      "lat": 40.27,
      "lon": -3.69,
      "events": 160,
      "unique_balizas": 6,
      "main_carretera": "A-4",
      "main_municipio": "Pinto",
      "main_provincia": "Madrid",
      "main_comunidad": "Comunidad de Madrid"
    },
    {
      "lat": 42.34,
      "lon": -3.69,
      "events": 160,
      "unique_balizas": 5,
      "main_carretera": "BU-11",
      "main_municipio": "Burgos",
      "main_provincia": "Burgos",
      "main_comunidad": "Castilla y León"
    },
    {
      "lat": 39.94,
      "lon": -3.99,
      "events": 159,
      "unique_balizas": 4,
      "main_carretera": "CM-4006",
      "main_municipio": "Olías del Rey",
      "main_provincia": "Toledo",
      "main_comunidad": "Castilla-La Mancha"
    },
    {
      "lat": 43.29,
      "lon": -8.37,
      "events": 159,
      "unique_balizas": 7,
      "main_carretera": "N-550",
      "main_municipio": "Cambre",
      "main_provincia": "A Coruña",
      "main_comunidad": "Galicia"
    },
    {
      "lat": 37.19,
      "lon": -3.63,
      "events": 159,
      "unique_balizas": 7,
      "main_carretera": "GR-30",
      "main_municipio": "Granada",
      "main_provincia": "Granada",
      "main_comunidad": "Andalucía"
    },
    {
      "lat": 36.77,
      "lon": -2.84,
      "events": 159,
      "unique_balizas": 5,
      "main_carretera": "A-7",
      "main_municipio": "El Ejido",
      "main_provincia": "Almería",
      "main_comunidad": "Andalucía"
    },
    {
      "lat": 37.13,
      "lon": -3.44,
      "events": 159,
      "unique_balizas": 8,
      "main_carretera": "A-395",
      "main_municipio": "Güéjar Sierra",
      "main_provincia": "Granada",
      "main_comunidad": "Andalucía"
    },
    {
      "lat": 37.59,
      "lon": -4.63,
      "events": 158,
      "unique_balizas": 5,
      "main_carretera": "A-309a",
      "main_municipio": "Montilla",
      "main_provincia": "Córdoba",
      "main_comunidad": "Andalucía"
    },
    {
      "lat": 42.9,
      "lon": -8.94,
      "events": 156,
      "unique_balizas": 3,
      "main_carretera": "DP-3404",
      "main_municipio": "Mazaricos",
      "main_provincia": "A Coruña",
      "main_comunidad": "Galicia"
    },
    {
      "lat": 39.53,
      "lon": -0.47,
      "events": 156,
      "unique_balizas": 5,
      "main_carretera": "CV-368",
      "main_municipio": "Paterna",
      "main_provincia": "València/Valencia",
      "main_comunidad": "Comunitat Valenciana"
    },
    {
      "lat": 37.29,
      "lon": -1.88,
      "events": 156,
      "unique_balizas": 4,
      "main_carretera": "A-332",
      "main_municipio": "Cuevas del Almanzora",
      "main_provincia": "Almería",
      "main_comunidad": "Andalucía"
    },
    {
      "lat": 39.5,
      "lon": -0.41,
      "events": 155,
      "unique_balizas": 6,
      "main_carretera": "CV-35",
      "main_municipio": "Burjassot",
      "main_provincia": "València/Valencia",
      "main_comunidad": "Comunitat Valenciana"
    },
    {
      "lat": 40.36,
      "lon": -3.75,
      "events": 155,
      "unique_balizas": 5,
      "main_carretera": "M-421",
      "main_municipio": "Madrid",
      "main_provincia": "Madrid",
      "main_comunidad": "Comunidad de Madrid"
    },
    {
      "lat": 28.03,
      "lon": -15.4,
      "events": 154,
      "unique_balizas": 7,
      "main_carretera": "GC-1",
      "main_municipio": "Las Palmas de Gran Canaria",
      "main_provincia": "Las Palmas",
      "main_comunidad": "Canarias"
    },
    {
      "lat": 28.02,
      "lon": -15.39,
      "events": 153,
      "unique_balizas": 6,
      "main_carretera": "GC-1",
      "main_municipio": "Telde",
      "main_provincia": "Las Palmas",
      "main_comunidad": "Canarias"
    },
    {
      "lat": 39.47,
      "lon": -0.42,
      "events": 153,
      "unique_balizas": 5,
      "main_carretera": "A-3",
      "main_municipio": "Xirivella",
      "main_provincia": "València/Valencia",
      "main_comunidad": "Comunitat Valenciana"
    },
    {
      "lat": 37.13,
      "lon": -3.6,
      "events": 153,
      "unique_balizas": 3,
      "main_carretera": "GR-3209",
      "main_municipio": "Ogíjares",
      "main_provincia": "Granada",
      "main_comunidad": "Andalucía"
    },
    {
      "lat": 37.32,
      "lon": -3.32,
      "events": 153,
      "unique_balizas": 6,
      "main_carretera": "A-92",
      "main_municipio": "Diezma",
      "main_provincia": "Granada",
      "main_comunidad": "Andalucía"
    },
    {
      "lat": 36.6,
      "lon": -4.62,
      "events": 152,
      "unique_balizas": 3,
      "main_carretera": "A-368",
      "main_municipio": "Mijas",
      "main_provincia": "Málaga",
      "main_comunidad": "Andalucía"
    },
    {
      "lat": 37.42,
      "lon": -6.04,
      "events": 152,
      "unique_balizas": 4,
      "main_carretera": "N-630",
      "main_municipio": "Camas",
      "main_provincia": "Sevilla",
      "main_comunidad": "Andalucía"
    },
    {
      "lat": 38.27,
      "lon": -0.75,
      "events": 152,
      "unique_balizas": 6,
      "main_carretera": "A-7",
      "main_municipio": "Elx/Elche",
      "main_provincia": "Alacant/Alicante",
      "main_comunidad": "Comunitat Valenciana"
    },
    {
      "lat": 42.26,
      "lon": -8.79,
      "events": 151,
      "unique_balizas": 4,
      "main_carretera": "PO-551",
      "main_municipio": "Cangas",
      "main_provincia": "Pontevedra",
      "main_comunidad": "Galicia"
    },
    {
      "lat": 38.97,
      "lon": 1.31,
      "events": 151,
      "unique_balizas": 4,
      "main_carretera": "EI-700",
      "main_municipio": "Sant Antoni de Portmany",
      "main_provincia": "Illes Balears",
      "main_comunidad": "Illes Balears"
    },
    {
      "lat": 43.34,
      "lon": -8.44,
      "events": 151,
      "unique_balizas": 5,
      "main_carretera": "AC-552",
      "main_municipio": "A Coruña",
      "main_provincia": "A Coruña",
      "main_comunidad": "Galicia"
    },
    {
      "lat": 41.66,
      "lon": -4.76,
      "events": 150,
      "unique_balizas": 5,
      "main_carretera": "A-62",
      "main_municipio": "Valladolid",
      "main_provincia": "Valladolid",
      "main_comunidad": "Castilla y León"
    },
    {
      "lat": 28.44,
      "lon": -16.31,
      "events": 150,
      "unique_balizas": 7,
      "main_carretera": "TF-28",
      "main_municipio": "Santa Cruz de Tenerife",
      "main_provincia": "Santa Cruz de Tenerife",
      "main_comunidad": "Canarias"
    },
    {
      "lat": 42.52,
      "lon": -4.01,
      "events": 150,
      "unique_balizas": 7,
      "main_carretera": "BU-601",
      "main_municipio": "Villadiego",
      "main_provincia": "Burgos",
      "main_comunidad": "Castilla y León"
    },
    {
      "lat": 43.46,
      "lon": -7.05,
      "events": 150,
      "unique_balizas": 4,
      "main_carretera": "AS-21",
      "main_municipio": "Vegadeo",
      "main_provincia": "Asturias",
      "main_comunidad": "Principado de Asturias"
    },
    {
      "lat": 37.16,
      "lon": -3.63,
      "events": 149,
      "unique_balizas": 4,
      "main_carretera": "GR-3303",
      "main_municipio": "Granada",
      "main_provincia": "Granada",
      "main_comunidad": "Andalucía"
    },
    {
      "lat": 37.85,
      "lon": -4.79,
      "events": 149,
      "unique_balizas": 7,
      "main_carretera": "A-4R2",
      "main_municipio": "Córdoba",
      "main_provincia": "Córdoba",
      "main_comunidad": "Andalucía"
    },
    {
      "lat": 38.69,
      "lon": -2.69,
      "events": 147,
      "unique_balizas": 4,
      "main_carretera": "CM-3202",
      "main_municipio": "Villanueva de la Fuente",
      "main_provincia": "Ciudad Real",
      "main_comunidad": "Castilla-La Mancha"
    },
    {
      "lat": 37.13,
      "lon": -3.61,
      "events": 147,
      "unique_balizas": 4,
      "main_carretera": "GR-30",
      "main_municipio": "Ogíjares",
      "main_provincia": "Granada",
      "main_comunidad": "Andalucía"
    },
    {
      "lat": 36.5,
      "lon": -6.26,
      "events": 147,
      "unique_balizas": 4,
      "main_carretera": "CA-36",
      "main_municipio": "Cádiz",
      "main_provincia": "Cádiz",
      "main_comunidad": "Andalucía"
    },
    {
      "lat": 36.52,
      "lon": -4.88,
      "events": 146,
      "unique_balizas": 6,
      "main_carretera": "A-7",
      "main_municipio": "Marbella",
      "main_provincia": "Málaga",
      "main_comunidad": "Andalucía"
    },
    {
      "lat": 37.97,
      "lon": -1.23,
      "events": 146,
      "unique_balizas": 5,
      "main_carretera": "A-30",
      "main_municipio": "Alcantarilla",
      "main_provincia": "Murcia",
      "main_comunidad": "Región de Murcia"
    },
    {
      "lat": 43.26,
      "lon": -5.77,
      "events": 146,
      "unique_balizas": 3,
      "main_carretera": "AS-375",
      "main_municipio": "Mieres",
      "main_provincia": "Asturias",
      "main_comunidad": "Principado de Asturias"
    },
    {
      "lat": 36.71,
      "lon": -4.48,
      "events": 145,
      "unique_balizas": 6,
      "main_carretera": "A-357",
      "main_municipio": "Málaga",
      "main_provincia": "Málaga",
      "main_comunidad": "Andalucía"
    },
    {
      "lat": 36.84,
      "lon": -2.43,
      "events": 145,
      "unique_balizas": 6,
      "main_carretera": "AL-12",
      "main_municipio": "Almería",
      "main_provincia": "Almería",
      "main_comunidad": "Andalucía"
    },
    {
      "lat": 28.46,
      "lon": -16.31,
      "events": 145,
      "unique_balizas": 6,
      "main_carretera": "TF-2",
      "main_municipio": "San Cristóbal de La Laguna",
      "main_provincia": "Santa Cruz de Tenerife",
      "main_comunidad": "Canarias"
    },
    {
      "lat": 40.36,
      "lon": -3.8,
      "events": 145,
      "unique_balizas": 4,
      "main_carretera": "A-5R",
      "main_municipio": "Alcorcón",
      "main_provincia": "Madrid",
      "main_comunidad": "Comunidad de Madrid"
    },
    {
      "lat": 38.48,
      "lon": -0.6,
      "events": 145,
      "unique_balizas": 5,
      "main_carretera": "A-7",
      "main_municipio": "Tibi",
      "main_provincia": "Alacant/Alicante",
      "main_comunidad": "Comunitat Valenciana"
    },
    {
      "lat": 37.21,
      "lon": -3.62,
      "events": 145,
      "unique_balizas": 7,
      "main_carretera": "GR-30",
      "main_municipio": "Granada",
      "main_provincia": "Granada",
      "main_comunidad": "Andalucía"
    },
    {
      "lat": 28.43,
      "lon": -16.3,
      "events": 144,
      "unique_balizas": 4,
      "main_carretera": "TF-2",
      "main_municipio": "Santa Cruz de Tenerife",
      "main_provincia": "Santa Cruz de Tenerife",
      "main_comunidad": "Canarias"
    },
    {
      "lat": 36.75,
      "lon": -2.8,
      "events": 144,
      "unique_balizas": 5,
      "main_carretera": "Avda. de la Costa",
      "main_municipio": "El Ejido",
      "main_provincia": "Almería",
      "main_comunidad": "Andalucía"
    },
    {
      "lat": 39.6,
      "lon": 2.65,
      "events": 144,
      "unique_balizas": 4,
      "main_carretera": "Ma-20",
      "main_municipio": "Palma",
      "main_provincia": "Illes Balears",
      "main_comunidad": "Illes Balears"
    },
    {
      "lat": 40.22,
      "lon": -3.61,
      "events": 143,
      "unique_balizas": 4,
      "main_carretera": "M-506",
      "main_municipio": "San Martín de la Vega",
      "main_provincia": "Madrid",
      "main_comunidad": "Comunidad de Madrid"
    },
    {
      "lat": 36.49,
      "lon": -5.93,
      "events": 142,
      "unique_balizas": 3,
      "main_carretera": "A-390",
      "main_municipio": "Medina Sidonia",
      "main_provincia": "Cádiz",
      "main_comunidad": "Andalucía"
    },
    {
      "lat": 38.61,
      "lon": -0.85,
      "events": 141,
      "unique_balizas": 5,
      "main_carretera": "A-31",
      "main_municipio": "Villena",
      "main_provincia": "Alacant/Alicante",
      "main_comunidad": "Comunitat Valenciana"
    },
    {
      "lat": 37.35,
      "lon": -5.84,
      "events": 141,
      "unique_balizas": 6,
      "main_carretera": "A-92",
      "main_municipio": "Alcalá de Guadaíra",
      "main_provincia": "Sevilla",
      "main_comunidad": "Andalucía"
    },
    {
      "lat": 28.0,
      "lon": -15.39,
      "events": 141,
      "unique_balizas": 5,
      "main_carretera": "GC-1",
      "main_municipio": "Telde",
      "main_provincia": "Las Palmas",
      "main_comunidad": "Canarias"
    },
    {
      "lat": 42.44,
      "lon": -8.65,
      "events": 141,
      "unique_balizas": 5,
      "main_carretera": "AP-9",
      "main_municipio": "Pontevedra",
      "main_provincia": "Pontevedra",
      "main_comunidad": "Galicia"
    },
    {
      "lat": 43.33,
      "lon": -8.4,
      "events": 141,
      "unique_balizas": 5,
      "main_carretera": "AP-9",
      "main_municipio": "A Coruña",
      "main_provincia": "A Coruña",
      "main_comunidad": "Galicia"
    },
    {
      "lat": 40.36,
      "lon": -3.78,
      "events": 141,
      "unique_balizas": 6,
      "main_carretera": "M-40",
      "main_municipio": "Madrid",
      "main_provincia": "Madrid",
      "main_comunidad": "Comunidad de Madrid"
    },
    {
      "lat": 28.47,
      "lon": -16.31,
      "events": 141,
      "unique_balizas": 5,
      "main_carretera": "TF-5",
      "main_municipio": "San Cristóbal de La Laguna",
      "main_provincia": "Santa Cruz de Tenerife",
      "main_comunidad": "Canarias"
    },
    {
      "lat": 40.43,
      "lon": -3.6,
      "events": 140,
      "unique_balizas": 3,
      "main_carretera": "M-40",
      "main_municipio": "Madrid",
      "main_provincia": "Madrid",
      "main_comunidad": "Comunidad de Madrid"
    },
    {
      "lat": 40.32,
      "lon": -3.76,
      "events": 140,
      "unique_balizas": 3,
      "main_carretera": "M-406",
      "main_municipio": "Leganés",
      "main_provincia": "Madrid",
      "main_comunidad": "Comunidad de Madrid"
    },
    {
      "lat": 42.9,
      "lon": -2.17,
      "events": 140,
      "unique_balizas": 3,
      "main_carretera": "NA-8505",
      "main_municipio": "Altsasu/Alsasua",
      "main_provincia": "Navarra",
      "main_comunidad": "Comunidad Foral de Navarra"
    },
    {
      "lat": 40.08,
      "lon": -3.86,
      "events": 140,
      "unique_balizas": 4,
      "main_carretera": "CM-4004a",
      "main_municipio": "Numancia de la Sagra",
      "main_provincia": "Toledo",
      "main_comunidad": "Castilla-La Mancha"
    },
    {
      "lat": 39.65,
      "lon": -0.3,
      "events": 140,
      "unique_balizas": 3,
      "main_carretera": "A-7",
      "main_municipio": "Sagunt/Sagunto",
      "main_provincia": "València/Valencia",
      "main_comunidad": "Comunitat Valenciana"
    },
    {
      "lat": 43.35,
      "lon": -4.05,
      "events": 139,
      "unique_balizas": 3,
      "main_carretera": "N-611",
      "main_municipio": "Torrelavega",
      "main_provincia": "Cantabria",
      "main_comunidad": "Cantabria"
    },
    {
      "lat": 43.44,
      "lon": -3.84,
      "events": 139,
      "unique_balizas": 6,
      "main_carretera": "S-10",
      "main_municipio": "Santander",
      "main_provincia": "Cantabria",
      "main_comunidad": "Cantabria"
    },
    {
      "lat": 40.36,
      "lon": -3.77,
      "events": 139,
      "unique_balizas": 6,
      "main_carretera": "M-40",
      "main_municipio": "Leganés",
      "main_provincia": "Madrid",
      "main_comunidad": "Comunidad de Madrid"
    },
    {
      "lat": 40.42,
      "lon": -3.6,
      "events": 138,
      "unique_balizas": 5,
      "main_carretera": "M-40",
      "main_municipio": "Madrid",
      "main_provincia": "Madrid",
      "main_comunidad": "Comunidad de Madrid"
    },
    {
      "lat": 27.77,
      "lon": -15.69,
      "events": 138,
      "unique_balizas": 3,
      "main_carretera": "GC-500",
      "main_municipio": "Mogán",
      "main_provincia": "Las Palmas",
      "main_comunidad": "Canarias"
    },
    {
      "lat": 29.01,
      "lon": -13.61,
      "events": 138,
      "unique_balizas": 3,
      "main_carretera": "LZ-20",
      "main_municipio": "San Bartolomé",
      "main_provincia": "Las Palmas",
      "main_comunidad": "Canarias"
    },
    {
      "lat": 37.89,
      "lon": -4.81,
      "events": 137,
      "unique_balizas": 6,
      "main_carretera": "A-3050",
      "main_municipio": "Córdoba",
      "main_provincia": "Córdoba",
      "main_comunidad": "Andalucía"
    },
    {
      "lat": 36.25,
      "lon": -6.01,
      "events": 136,
      "unique_balizas": 4,
      "main_carretera": "A-48",
      "main_municipio": "Vejer de la Frontera",
      "main_provincia": "Cádiz",
      "main_comunidad": "Andalucía"
    },
    {
      "lat": 38.38,
      "lon": -0.49,
      "events": 136,
      "unique_balizas": 4,
      "main_carretera": "A-70",
      "main_municipio": "Alacant/Alicante",
      "main_provincia": "Alacant/Alicante",
      "main_comunidad": "Comunitat Valenciana"
    },
    {
      "lat": 40.24,
      "lon": -3.69,
      "events": 136,
      "unique_balizas": 5,
      "main_carretera": "M-841",
      "main_municipio": "Pinto",
      "main_provincia": "Madrid",
      "main_comunidad": "Comunidad de Madrid"
    },
    {
      "lat": 37.23,
      "lon": -5.08,
      "events": 136,
      "unique_balizas": 3,
      "main_carretera": "A-92",
      "main_municipio": "Osuna",
      "main_provincia": "Sevilla",
      "main_comunidad": "Andalucía"
    },
    {
      "lat": 38.84,
      "lon": -6.62,
      "events": 136,
      "unique_balizas": 4,
      "main_carretera": "A-5",
      "main_municipio": "Lobón",
      "main_provincia": "Badajoz",
      "main_comunidad": "Extremadura"
    },
    {
      "lat": 40.26,
      "lon": -3.69,
      "events": 136,
      "unique_balizas": 5,
      "main_carretera": "A-4",
      "main_municipio": "Pinto",
      "main_provincia": "Madrid",
      "main_comunidad": "Comunidad de Madrid"
    },
    {
      "lat": 37.38,
      "lon": -5.94,
      "events": 136,
      "unique_balizas": 5,
      "main_carretera": "SE-30",
      "main_municipio": "Sevilla",
      "main_provincia": "Sevilla",
      "main_comunidad": "Andalucía"
    },
    {
      "lat": 43.31,
      "lon": -8.37,
      "events": 135,
      "unique_balizas": 7,
      "main_carretera": "N-550",
      "main_municipio": "Culleredo",
      "main_provincia": "A Coruña",
      "main_comunidad": "Galicia"
    },
    {
      "lat": 42.86,
      "lon": -8.56,
      "events": 135,
      "unique_balizas": 4,
      "main_carretera": "AP-9",
      "main_municipio": "Santiago de Compostela",
      "main_provincia": "A Coruña",
      "main_comunidad": "Galicia"
    },
    {
      "lat": 37.35,
      "lon": -5.96,
      "events": 135,
      "unique_balizas": 6,
      "main_carretera": "SE-30",
      "main_municipio": "Sevilla",
      "main_provincia": "Sevilla",
      "main_comunidad": "Andalucía"
    },
    {
      "lat": 42.6,
      "lon": -6.81,
      "events": 135,
      "unique_balizas": 4,
      "main_carretera": "N-6",
      "main_municipio": "Villafranca del Bierzo",
      "main_provincia": "León",
      "main_comunidad": "Castilla y León"
    },
    {
      "lat": 36.76,
      "lon": -2.76,
      "events": 134,
      "unique_balizas": 3,
      "main_carretera": "A-1050",
      "main_municipio": "El Ejido",
      "main_provincia": "Almería",
      "main_comunidad": "Andalucía"
    },
    {
      "lat": 39.86,
      "lon": -4.03,
      "events": 134,
      "unique_balizas": 5,
      "main_carretera": "CM-401",
      "main_municipio": "Toledo",
      "main_provincia": "Toledo",
      "main_comunidad": "Castilla-La Mancha"
    },
    {
      "lat": 40.45,
      "lon": -3.88,
      "events": 134,
      "unique_balizas": 5,
      "main_carretera": "M-503",
      "main_municipio": "Majadahonda",
      "main_provincia": "Madrid",
      "main_comunidad": "Comunidad de Madrid"
    },
    {
      "lat": 40.47,
      "lon": -3.41,
      "events": 134,
      "unique_balizas": 3,
      "main_carretera": "M-300",
      "main_municipio": "Alcalá de Henares",
      "main_provincia": "Madrid",
      "main_comunidad": "Comunidad de Madrid"
    },
    {
      "lat": 38.87,
      "lon": -6.98,
      "events": 134,
      "unique_balizas": 7,
      "main_carretera": "BA-20",
      "main_municipio": "Badajoz",
      "main_provincia": "Badajoz",
      "main_comunidad": "Extremadura"
    },
    {
      "lat": 43.31,
      "lon": -8.38,
      "events": 134,
      "unique_balizas": 7,
      "main_carretera": "N-550",
      "main_municipio": "Culleredo",
      "main_provincia": "A Coruña",
      "main_comunidad": "Galicia"
    },
    {
      "lat": 43.35,
      "lon": -8.43,
      "events": 134,
      "unique_balizas": 5,
      "main_carretera": "V-14",
      "main_municipio": "A Coruña",
      "main_provincia": "A Coruña",
      "main_comunidad": "Galicia"
    },
    {
      "lat": 28.4,
      "lon": -16.53,
      "events": 134,
      "unique_balizas": 4,
      "main_carretera": "TF-5",
      "main_municipio": "La Orotava",
      "main_provincia": "Santa Cruz de Tenerife",
      "main_comunidad": "Canarias"
    },
    {
      "lat": 37.37,
      "lon": -3.07,
      "events": 133,
      "unique_balizas": 3,
      "main_carretera": "A-92NR1",
      "main_municipio": "Guadix",
      "main_provincia": "Granada",
      "main_comunidad": "Andalucía"
    },
    {
      "lat": 43.34,
      "lon": -3.16,
      "events": 132,
      "unique_balizas": 5,
      "main_carretera": "A-8",
      "main_municipio": "Castro-Urdiales",
      "main_provincia": "Cantabria",
      "main_comunidad": "Cantabria"
    },
    {
      "lat": 39.41,
      "lon": -2.42,
      "events": 132,
      "unique_balizas": 4,
      "main_carretera": "N-310",
      "main_municipio": "San Clemente",
      "main_provincia": "Cuenca",
      "main_comunidad": "Castilla-La Mancha"
    },
    {
      "lat": 43.33,
      "lon": -8.38,
      "events": 132,
      "unique_balizas": 5,
      "main_carretera": "AC-11",
      "main_municipio": "A Coruña",
      "main_provincia": "A Coruña",
      "main_comunidad": "Galicia"
    },
    {
      "lat": 43.51,
      "lon": -6.72,
      "events": 132,
      "unique_balizas": 3,
      "main_carretera": "NV-5",
      "main_municipio": "Navia",
      "main_provincia": "Asturias",
      "main_comunidad": "Principado de Asturias"
    },
    {
      "lat": 37.23,
      "lon": -7.36,
      "events": 131,
      "unique_balizas": 5,
      "main_carretera": "N-431a",
      "main_municipio": "Ayamonte",
      "main_provincia": "Huelva",
      "main_comunidad": "Andalucía"
    },
    {
      "lat": 42.76,
      "lon": -2.82,
      "events": 131,
      "unique_balizas": 3,
      "main_carretera": "A-1",
      "main_municipio": "La Puebla de Arganzón",
      "main_provincia": "Burgos",
      "main_comunidad": "Castilla y León"
    },
    {
      "lat": 39.51,
      "lon": -0.45,
      "events": 131,
      "unique_balizas": 4,
      "main_carretera": "CV-367",
      "main_municipio": "Paterna",
      "main_provincia": "València/Valencia",
      "main_comunidad": "Comunitat Valenciana"
    },
    {
      "lat": 36.72,
      "lon": -4.29,
      "events": 131,
      "unique_balizas": 3,
      "main_carretera": "N-340a",
      "main_municipio": "Rincón de la Victoria",
      "main_provincia": "Málaga",
      "main_comunidad": "Andalucía"
    },
    {
      "lat": 42.22,
      "lon": -8.68,
      "events": 131,
      "unique_balizas": 4,
      "main_carretera": "A-55",
      "main_municipio": "Vigo",
      "main_provincia": "Pontevedra",
      "main_comunidad": "Galicia"
    },
    {
      "lat": 37.89,
      "lon": -4.75,
      "events": 131,
      "unique_balizas": 6,
      "main_carretera": "A-4",
      "main_municipio": "Córdoba",
      "main_provincia": "Córdoba",
      "main_comunidad": "Andalucía"
    },
    {
      "lat": 37.48,
      "lon": -5.6,
      "events": 131,
      "unique_balizas": 3,
      "main_carretera": "A-4",
      "main_municipio": "Carmona",
      "main_provincia": "Sevilla",
      "main_comunidad": "Andalucía"
    },
    {
      "lat": 39.51,
      "lon": -0.46,
      "events": 130,
      "unique_balizas": 5,
      "main_carretera": "CV-365",
      "main_municipio": "Paterna",
      "main_provincia": "València/Valencia",
      "main_comunidad": "Comunitat Valenciana"
    },
    {
      "lat": 37.31,
      "lon": -6.88,
      "events": 130,
      "unique_balizas": 5,
      "main_carretera": "H-31",
      "main_municipio": "Huelva",
      "main_provincia": "Huelva",
      "main_comunidad": "Andalucía"
    },
    {
      "lat": 42.84,
      "lon": -8.58,
      "events": 130,
      "unique_balizas": 4,
      "main_carretera": "N-550",
      "main_municipio": "Ames",
      "main_provincia": "A Coruña",
      "main_comunidad": "Galicia"
    },
    {
      "lat": 37.33,
      "lon": -6.84,
      "events": 130,
      "unique_balizas": 3,
      "main_carretera": "N-435",
      "main_municipio": "San Juan del Puerto",
      "main_provincia": "Huelva",
      "main_comunidad": "Andalucía"
    },
    {
      "lat": 37.58,
      "lon": -4.64,
      "events": 130,
      "unique_balizas": 4,
      "main_carretera": "A-309a",
      "main_municipio": "Montilla",
      "main_provincia": "Córdoba",
      "main_comunidad": "Andalucía"
    },
    {
      "lat": 37.36,
      "lon": -5.95,
      "events": 130,
      "unique_balizas": 4,
      "main_carretera": "SE-30",
      "main_municipio": "Sevilla",
      "main_provincia": "Sevilla",
      "main_comunidad": "Andalucía"
    },
    {
      "lat": 43.35,
      "lon": -8.35,
      "events": 129,
      "unique_balizas": 3,
      "main_carretera": "AC-173",
      "main_municipio": "Oleiros",
      "main_provincia": "A Coruña",
      "main_comunidad": "Galicia"
    },
    {
      "lat": 42.63,
      "lon": -0.33,
      "events": 129,
      "unique_balizas": 4,
      "main_carretera": "N-260a",
      "main_municipio": "Biescas",
      "main_provincia": "Huesca",
      "main_comunidad": "Aragón"
    },
    {
      "lat": 37.2,
      "lon": -3.0,
      "events": 129,
      "unique_balizas": 3,
      "main_carretera": "A-92",
      "main_municipio": "Dólar",
      "main_provincia": "Granada",
      "main_comunidad": "Andalucía"
    },
    {
      "lat": 39.98,
      "lon": -4.28,
      "events": 128,
      "unique_balizas": 3,
      "main_carretera": "N-403a",
      "main_municipio": "Torrijos",
      "main_provincia": "Toledo",
      "main_comunidad": "Castilla-La Mancha"
    },
    {
      "lat": 40.41,
      "lon": -3.62,
      "events": 128,
      "unique_balizas": 6,
      "main_carretera": "M-40",
      "main_municipio": "Madrid",
      "main_provincia": "Madrid",
      "main_comunidad": "Comunidad de Madrid"
    },
    {
      "lat": 42.13,
      "lon": -0.4,
      "events": 128,
      "unique_balizas": 3,
      "main_carretera": "A-131",
      "main_municipio": "Huesca",
      "main_provincia": "Huesca",
      "main_comunidad": "Aragón"
    },
    {
      "lat": 37.1,
      "lon": -3.4,
      "events": 128,
      "unique_balizas": 5,
      "main_carretera": "A-395R1",
      "main_municipio": "Monachil",
      "main_provincia": "Granada",
      "main_comunidad": "Andalucía"
    },
    {
      "lat": 42.9,
      "lon": -5.15,
      "events": 128,
      "unique_balizas": 4,
      "main_carretera": "N-621",
      "main_municipio": "Crémenes",
      "main_provincia": "León",
      "main_comunidad": "Castilla y León"
    },
    {
      "lat": 37.67,
      "lon": -4.73,
      "events": 128,
      "unique_balizas": 5,
      "main_carretera": "N-331",
      "main_municipio": "Fernán-Núñez",
      "main_provincia": "Córdoba",
      "main_comunidad": "Andalucía"
    },
    {
      "lat": 40.3,
      "lon": -4.12,
      "events": 127,
      "unique_balizas": 3,
      "main_carretera": "M-507",
      "main_municipio": "Villamanta",
      "main_provincia": "Madrid",
      "main_comunidad": "Comunidad de Madrid"
    },
    {
      "lat": 38.34,
      "lon": -0.49,
      "events": 127,
      "unique_balizas": 4,
      "main_carretera": "N-332",
      "main_municipio": "Alacant/Alicante",
      "main_provincia": "Alacant/Alicante",
      "main_comunidad": "Comunitat Valenciana"
    },
    {
      "lat": 43.69,
      "lon": -7.55,
      "events": 127,
      "unique_balizas": 3,
      "main_carretera": "CG-2.3",
      "main_municipio": "Xove",
      "main_provincia": "Lugo",
      "main_comunidad": "Galicia"
    },
    {
      "lat": 36.66,
      "lon": -4.53,
      "events": 127,
      "unique_balizas": 4,
      "main_carretera": "A-7",
      "main_municipio": "Málaga",
      "main_provincia": "Málaga",
      "main_comunidad": "Andalucía"
    },
    {
      "lat": 43.35,
      "lon": -8.41,
      "events": 127,
      "unique_balizas": 6,
      "main_carretera": "AC-11",
      "main_municipio": "A Coruña",
      "main_provincia": "A Coruña",
      "main_comunidad": "Galicia"
    },
    {
      "lat": 42.84,
      "lon": -8.53,
      "events": 126,
      "unique_balizas": 3,
      "main_carretera": "AP-53",
      "main_municipio": "Teo",
      "main_provincia": "A Coruña",
      "main_comunidad": "Galicia"
    },
    {
      "lat": 28.14,
      "lon": -15.66,
      "events": 126,
      "unique_balizas": 3,
      "main_carretera": "GC-292",
      "main_municipio": "Gáldar",
      "main_provincia": "Las Palmas",
      "main_comunidad": "Canarias"
    },
    {
      "lat": 40.41,
      "lon": -3.42,
      "events": 126,
      "unique_balizas": 3,
      "main_carretera": "M-206",
      "main_municipio": "Loeches",
      "main_provincia": "Madrid",
      "main_comunidad": "Comunidad de Madrid"
    },
    {
      "lat": 28.46,
      "lon": -16.29,
      "events": 126,
      "unique_balizas": 4,
      "main_carretera": "TF-5",
      "main_municipio": "San Cristóbal de La Laguna",
      "main_provincia": "Santa Cruz de Tenerife",
      "main_comunidad": "Canarias"
    },
    {
      "lat": 36.73,
      "lon": -4.45,
      "events": 125,
      "unique_balizas": 4,
      "main_carretera": "MA-20",
      "main_municipio": "Málaga",
      "main_provincia": "Málaga",
      "main_comunidad": "Andalucía"
    },
    {
      "lat": 42.32,
      "lon": -3.7,
      "events": 125,
      "unique_balizas": 4,
      "main_carretera": "BU-30",
      "main_municipio": "Burgos",
      "main_provincia": "Burgos",
      "main_comunidad": "Castilla y León"
    },
    {
      "lat": 40.23,
      "lon": -4.07,
      "events": 125,
      "unique_balizas": 3,
      "main_carretera": "A-5",
      "main_municipio": "Casarrubios del Monte",
      "main_provincia": "Toledo",
      "main_comunidad": "Castilla-La Mancha"
    },
    {
      "lat": 38.93,
      "lon": 1.42,
      "events": 125,
      "unique_balizas": 3,
      "main_carretera": "EI-600",
      "main_municipio": "Santa Eulària des Riu",
      "main_provincia": "Illes Balears",
      "main_comunidad": "Illes Balears"
    },
    {
      "lat": 42.3,
      "lon": -8.14,
      "events": 125,
      "unique_balizas": 3,
      "main_carretera": "OU-504",
      "main_municipio": "Ribadavia",
      "main_provincia": "Ourense",
      "main_comunidad": "Galicia"
    },
    {
      "lat": 37.29,
      "lon": -7.17,
      "events": 125,
      "unique_balizas": 5,
      "main_carretera": "N-431",
      "main_municipio": "Cartaya",
      "main_provincia": "Huelva",
      "main_comunidad": "Andalucía"
    },
    {
      "lat": 37.41,
      "lon": -1.95,
      "events": 125,
      "unique_balizas": 3,
      "main_carretera": "A-7",
      "main_municipio": "Huércal-Overa",
      "main_provincia": "Almería",
      "main_comunidad": "Andalucía"
    },
    {
      "lat": 43.4,
      "lon": -5.8,
      "events": 124,
      "unique_balizas": 3,
      "main_carretera": "A-66",
      "main_municipio": "Siero",
      "main_provincia": "Asturias",
      "main_comunidad": "Principado de Asturias"
    },
    {
      "lat": 38.04,
      "lon": -4.04,
      "events": 124,
      "unique_balizas": 5,
      "main_carretera": "A-6177",
      "main_municipio": "Andújar",
      "main_provincia": "Jaén",
      "main_comunidad": "Andalucía"
    },
    {
      "lat": 28.4,
      "lon": -16.52,
      "events": 123,
      "unique_balizas": 5,
      "main_carretera": "TF-5",
      "main_municipio": "La Orotava",
      "main_provincia": "Santa Cruz de Tenerife",
      "main_comunidad": "Canarias"
    },
    {
      "lat": 41.17,
      "lon": -1.29,
      "events": 123,
      "unique_balizas": 3,
      "main_carretera": "A-23",
      "main_municipio": "Villadoz",
      "main_provincia": "Zaragoza",
      "main_comunidad": "Aragón"
    },
    {
      "lat": 43.36,
      "lon": -8.41,
      "events": 123,
      "unique_balizas": 6,
      "main_carretera": "AC-11",
      "main_municipio": "A Coruña",
      "main_provincia": "A Coruña",
      "main_comunidad": "Galicia"
    },
    {
      "lat": 41.66,
      "lon": -0.93,
      "events": 123,
      "unique_balizas": 3,
      "main_carretera": "N-232",
      "main_municipio": "Zaragoza",
      "main_provincia": "Zaragoza",
      "main_comunidad": "Aragón"
    },
    {
      "lat": 36.49,
      "lon": -4.96,
      "events": 122,
      "unique_balizas": 3,
      "main_carretera": "A-7",
      "main_municipio": "Marbella",
      "main_provincia": "Málaga",
      "main_comunidad": "Andalucía"
    },
    {
      "lat": 40.47,
      "lon": 0.46,
      "events": 122,
      "unique_balizas": 4,
      "main_carretera": "N-232",
      "main_municipio": "Vinaròs",
      "main_provincia": "Castelló/Castellón",
      "main_comunidad": "Comunitat Valenciana"
    },
    {
      "lat": 40.33,
      "lon": -3.7,
      "events": 122,
      "unique_balizas": 3,
      "main_carretera": "M-45",
      "main_municipio": "Madrid",
      "main_provincia": "Madrid",
      "main_comunidad": "Comunidad de Madrid"
    },
    {
      "lat": 42.27,
      "lon": -7.64,
      "events": 122,
      "unique_balizas": 5,
      "main_carretera": "OU-0107",
      "main_municipio": "Maceda",
      "main_provincia": "Ourense",
      "main_comunidad": "Galicia"
    },
    {
      "lat": 38.54,
      "lon": -0.17,
      "events": 121,
      "unique_balizas": 5,
      "main_carretera": "N-332",
      "main_municipio": "Finestrat",
      "main_provincia": "Alacant/Alicante",
      "main_comunidad": "Comunitat Valenciana"
    },
    {
      "lat": 37.98,
      "lon": -1.14,
      "events": 121,
      "unique_balizas": 5,
      "main_carretera": "MU-33",
      "main_municipio": "Murcia",
      "main_provincia": "Murcia",
      "main_comunidad": "Región de Murcia"
    },
    {
      "lat": 41.68,
      "lon": 2.77,
      "events": 121,
      "unique_balizas": 3,
      "main_carretera": "GI-682",
      "main_municipio": "Blanes",
      "main_provincia": "Girona",
      "main_comunidad": "Cataluña"
    },
    {
      "lat": 40.29,
      "lon": -3.76,
      "events": 120,
      "unique_balizas": 4,
      "main_carretera": "M-50",
      "main_municipio": "Fuenlabrada",
      "main_provincia": "Madrid",
      "main_comunidad": "Comunidad de Madrid"
    },
    {
      "lat": 42.87,
      "lon": -8.54,
      "events": 120,
      "unique_balizas": 5,
      "main_carretera": "SC-20",
      "main_municipio": "Santiago de Compostela",
      "main_provincia": "A Coruña",
      "main_comunidad": "Galicia"
    },
    {
      "lat": 38.58,
      "lon": -0.07,
      "events": 120,
      "unique_balizas": 6,
      "main_carretera": "N-332",
      "main_municipio": "l'Alfàs del Pi",
      "main_provincia": "Alacant/Alicante",
      "main_comunidad": "Comunitat Valenciana"
    },
    {
      "lat": 28.45,
      "lon": -16.27,
      "events": 120,
      "unique_balizas": 5,
      "main_carretera": "TF-192",
      "main_municipio": "Santa Cruz de Tenerife",
      "main_provincia": "Santa Cruz de Tenerife",
      "main_comunidad": "Canarias"
    },
    {
      "lat": 37.57,
      "lon": -4.65,
      "events": 119,
      "unique_balizas": 8,
      "main_carretera": "A-309a",
      "main_municipio": "Montilla",
      "main_provincia": "Córdoba",
      "main_comunidad": "Andalucía"
    },
    {
      "lat": 39.87,
      "lon": -3.48,
      "events": 119,
      "unique_balizas": 4,
      "main_carretera": "A-4",
      "main_municipio": "Dosbarrios",
      "main_provincia": "Toledo",
      "main_comunidad": "Castilla-La Mancha"
    },
    {
      "lat": 43.41,
      "lon": -5.81,
      "events": 119,
      "unique_balizas": 3,
      "main_carretera": "AS-17",
      "main_municipio": "Llanera",
      "main_provincia": "Asturias",
      "main_comunidad": "Principado de Asturias"
    },
    {
      "lat": 40.36,
      "lon": -3.81,
      "events": 119,
      "unique_balizas": 6,
      "main_carretera": "M-406",
      "main_municipio": "Alcorcón",
      "main_provincia": "Madrid",
      "main_comunidad": "Comunidad de Madrid"
    },
    {
      "lat": 28.39,
      "lon": -16.66,
      "events": 119,
      "unique_balizas": 3,
      "main_carretera": "TF-5",
      "main_municipio": "La Guancha",
      "main_provincia": "Santa Cruz de Tenerife",
      "main_comunidad": "Canarias"
    },
    {
      "lat": 37.29,
      "lon": -7.13,
      "events": 119,
      "unique_balizas": 3,
      "main_carretera": "N-431",
      "main_municipio": "Cartaya",
      "main_provincia": "Huelva",
      "main_comunidad": "Andalucía"
    },
    {
      "lat": 40.61,
      "lon": -3.72,
      "events": 119,
      "unique_balizas": 5,
      "main_carretera": "M-607",
      "main_municipio": "Tres Cantos",
      "main_provincia": "Madrid",
      "main_comunidad": "Comunidad de Madrid"
    },
    {
      "lat": 43.55,
      "lon": -5.91,
      "events": 118,
      "unique_balizas": 7,
      "main_carretera": "AS-17",
      "main_municipio": "Avilés",
      "main_provincia": "Asturias",
      "main_comunidad": "Principado de Asturias"
    },
    {
      "lat": 40.4,
      "lon": -3.77,
      "events": 118,
      "unique_balizas": 3,
      "main_carretera": "A-5",
      "main_municipio": "Madrid",
      "main_provincia": "Madrid",
      "main_comunidad": "Comunidad de Madrid"
    },
    {
      "lat": 40.42,
      "lon": -3.5,
      "events": 118,
      "unique_balizas": 3,
      "main_carretera": "M-50",
      "main_municipio": "San Fernando de Henares",
      "main_provincia": "Madrid",
      "main_comunidad": "Comunidad de Madrid"
    },
    {
      "lat": 28.44,
      "lon": -16.33,
      "events": 118,
      "unique_balizas": 5,
      "main_carretera": "TF-272",
      "main_municipio": "Santa Cruz de Tenerife",
      "main_provincia": "Santa Cruz de Tenerife",
      "main_comunidad": "Canarias"
    },
    {
      "lat": 36.49,
      "lon": -5.02,
      "events": 118,
      "unique_balizas": 4,
      "main_carretera": "A-7175",
      "main_municipio": "Estepona",
      "main_provincia": "Málaga",
      "main_comunidad": "Andalucía"
    },
    {
      "lat": 36.72,
      "lon": -4.46,
      "events": 118,
      "unique_balizas": 5,
      "main_carretera": "MA-20",
      "main_municipio": "Málaga",
      "main_provincia": "Málaga",
      "main_comunidad": "Andalucía"
    },
    {
      "lat": 38.69,
      "lon": -2.7,
      "events": 118,
      "unique_balizas": 3,
      "main_carretera": "CM-3202",
      "main_municipio": "Villanueva de la Fuente",
      "main_provincia": "Ciudad Real",
      "main_comunidad": "Castilla-La Mancha"
    },
    {
      "lat": 28.07,
      "lon": -15.52,
      "events": 118,
      "unique_balizas": 3,
      "main_carretera": "GC-211",
      "main_municipio": "Teror",
      "main_provincia": "Las Palmas",
      "main_comunidad": "Canarias"
    },
    {
      "lat": 40.32,
      "lon": -3.82,
      "events": 118,
      "unique_balizas": 5,
      "main_carretera": "M-50",
      "main_municipio": "Fuenlabrada",
      "main_provincia": "Madrid",
      "main_comunidad": "Comunidad de Madrid"
    },
    {
      "lat": 38.62,
      "lon": -1.12,
      "events": 117,
      "unique_balizas": 4,
      "main_carretera": "N-344a",
      "main_municipio": "Yecla",
      "main_provincia": "Murcia",
      "main_comunidad": "Región de Murcia"
    },
    {
      "lat": 37.42,
      "lon": -5.91,
      "events": 117,
      "unique_balizas": 3,
      "main_carretera": "A-4",
      "main_municipio": "Sevilla",
      "main_provincia": "Sevilla",
      "main_comunidad": "Andalucía"
    },
    {
      "lat": 42.4,
      "lon": -8.64,
      "events": 117,
      "unique_balizas": 3,
      "main_carretera": "N-550",
      "main_municipio": "Pontevedra",
      "main_provincia": "Pontevedra",
      "main_comunidad": "Galicia"
    },
    {
      "lat": 40.46,
      "lon": -3.76,
      "events": 117,
      "unique_balizas": 3,
      "main_carretera": "A-6",
      "main_municipio": "Madrid",
      "main_provincia": "Madrid",
      "main_comunidad": "Comunidad de Madrid"
    },
    {
      "lat": 40.34,
      "lon": -3.89,
      "events": 117,
      "unique_balizas": 5,
      "main_carretera": "M-856",
      "main_municipio": "Móstoles",
      "main_provincia": "Madrid",
      "main_comunidad": "Comunidad de Madrid"
    },
    {
      "lat": 40.38,
      "lon": -3.64,
      "events": 117,
      "unique_balizas": 6,
      "main_carretera": "M-40",
      "main_municipio": "Madrid",
      "main_provincia": "Madrid",
      "main_comunidad": "Comunidad de Madrid"
    },
    {
      "lat": 36.79,
      "lon": -4.84,
      "events": 116,
      "unique_balizas": 3,
      "main_carretera": "MA-5401",
      "main_municipio": "Casarabonela",
      "main_provincia": "Málaga",
      "main_comunidad": "Andalucía"
    },
    {
      "lat": 41.73,
      "lon": -5.26,
      "events": 116,
      "unique_balizas": 2,
      "main_carretera": "N-6",
      "main_municipio": "Villardefrades",
      "main_provincia": "Valladolid",
      "main_comunidad": "Castilla y León"
    },
    {
      "lat": 42.79,
      "lon": -1.68,
      "events": 116,
      "unique_balizas": 3,
      "main_carretera": "A-15",
      "main_municipio": "Zizur Mayor/Zizur Nagusia",
      "main_provincia": "Navarra",
      "main_comunidad": "Comunidad Foral de Navarra"
    },
    {
      "lat": 40.33,
      "lon": -3.69,
      "events": 116,
      "unique_balizas": 4,
      "main_carretera": "M-45",
      "main_municipio": "Madrid",
      "main_provincia": "Madrid",
      "main_comunidad": "Comunidad de Madrid"
    },
    {
      "lat": 37.38,
      "lon": -6.08,
      "events": 116,
      "unique_balizas": 2,
      "main_carretera": "A-8062",
      "main_municipio": "Gines",
      "main_provincia": "Sevilla",
      "main_comunidad": "Andalucía"
    },
    {
      "lat": 36.26,
      "lon": -5.96,
      "events": 116,
      "unique_balizas": 5,
      "main_carretera": "A-396",
      "main_municipio": "Vejer de la Frontera",
      "main_provincia": "Cádiz",
      "main_comunidad": "Andalucía"
    },
    {
      "lat": 38.44,
      "lon": -0.78,
      "events": 116,
      "unique_balizas": 4,
      "main_carretera": "A-31",
      "main_municipio": "Elda",
      "main_provincia": "Alacant/Alicante",
      "main_comunidad": "Comunitat Valenciana"
    },
    {
      "lat": 41.87,
      "lon": -0.79,
      "events": 116,
      "unique_balizas": 3,
      "main_carretera": "N-330",
      "main_municipio": "Zuera",
      "main_provincia": "Zaragoza",
      "main_comunidad": "Aragón"
    },
    {
      "lat": 40.94,
      "lon": -3.63,
      "events": 115,
      "unique_balizas": 2,
      "main_carretera": "M-604",
      "main_municipio": "Lozoyuela-Navas-Sieteiglesias",
      "main_provincia": "Madrid",
      "main_comunidad": "Comunidad de Madrid"
    },
    {
      "lat": 42.02,
      "lon": -3.75,
      "events": 115,
      "unique_balizas": 4,
      "main_carretera": "N-1",
      "main_municipio": "Lerma",
      "main_provincia": "Burgos",
      "main_comunidad": "Castilla y León"
    },
    {
      "lat": 43.28,
      "lon": -4.08,
      "events": 115,
      "unique_balizas": 3,
      "main_carretera": "A-67",
      "main_municipio": "Los Corrales de Buelna",
      "main_provincia": "Cantabria",
      "main_comunidad": "Cantabria"
    },
    {
      "lat": 36.99,
      "lon": -3.62,
      "events": 115,
      "unique_balizas": 4,
      "main_carretera": "A-44",
      "main_municipio": "Villamena",
      "main_provincia": "Granada",
      "main_comunidad": "Andalucía"
    },
    {
      "lat": 41.52,
      "lon": 1.71,
      "events": 115,
      "unique_balizas": 3,
      "main_carretera": "B-224",
      "main_municipio": "Vallbona d'Anoia",
      "main_provincia": "Barcelona",
      "main_comunidad": "Cataluña"
    },
    {
      "lat": 28.07,
      "lon": -15.42,
      "events": 115,
      "unique_balizas": 4,
      "main_carretera": "GC-1 AM",
      "main_municipio": "Las Palmas de Gran Canaria",
      "main_provincia": "Las Palmas",
      "main_comunidad": "Canarias"
    },
    {
      "lat": 37.15,
      "lon": -3.49,
      "events": 115,
      "unique_balizas": 5,
      "main_carretera": "A-395",
      "main_municipio": "Pinos Genil",
      "main_provincia": "Granada",
      "main_comunidad": "Andalucía"
    },
    {
      "lat": 40.39,
      "lon": -3.63,
      "events": 115,
      "unique_balizas": 5,
      "main_carretera": "M-40",
      "main_municipio": "Madrid",
      "main_provincia": "Madrid",
      "main_comunidad": "Comunidad de Madrid"
    },
    {
      "lat": 36.26,
      "lon": -5.97,
      "events": 114,
      "unique_balizas": 3,
      "main_carretera": "A-2229",
      "main_municipio": "Vejer de la Frontera",
      "main_provincia": "Cádiz",
      "main_comunidad": "Andalucía"
    },
    {
      "lat": 36.49,
      "lon": -4.76,
      "events": 114,
      "unique_balizas": 3,
      "main_carretera": "A-7",
      "main_municipio": "Marbella",
      "main_provincia": "Málaga",
      "main_comunidad": "Andalucía"
    },
    {
      "lat": 42.27,
      "lon": -7.65,
      "events": 114,
      "unique_balizas": 3,
      "main_carretera": "OU-0107",
      "main_municipio": "Maceda",
      "main_provincia": "Ourense",
      "main_comunidad": "Galicia"
    },
    {
      "lat": 42.21,
      "lon": -8.66,
      "events": 114,
      "unique_balizas": 4,
      "main_carretera": "A-55",
      "main_municipio": "Mos",
      "main_provincia": "Pontevedra",
      "main_comunidad": "Galicia"
    },
    {
      "lat": 39.64,
      "lon": 3.01,
      "events": 114,
      "unique_balizas": 3,
      "main_carretera": "Ma-3130",
      "main_municipio": "Sineu",
      "main_provincia": "Illes Balears",
      "main_comunidad": "Illes Balears"
    },
    {
      "lat": 38.58,
      "lon": -1.69,
      "events": 114,
      "unique_balizas": 2,
      "main_carretera": "A-30",
      "main_municipio": "Tobarra",
      "main_provincia": "Albacete",
      "main_comunidad": "Castilla-La Mancha"
    },
    {
      "lat": 36.91,
      "lon": -3.53,
      "events": 113,
      "unique_balizas": 3,
      "main_carretera": "A-44",
      "main_municipio": "Lecrín",
      "main_provincia": "Granada",
      "main_comunidad": "Andalucía"
    },
    {
      "lat": 38.93,
      "lon": -0.18,
      "events": 113,
      "unique_balizas": 2,
      "main_carretera": "AP-7",
      "main_municipio": "Rafelcofer",
      "main_provincia": "València/Valencia",
      "main_comunidad": "Comunitat Valenciana"
    },
    {
      "lat": 37.2,
      "lon": -3.64,
      "events": 113,
      "unique_balizas": 2,
      "main_carretera": "A-92G",
      "main_municipio": "Granada",
      "main_provincia": "Granada",
      "main_comunidad": "Andalucía"
    },
    {
      "lat": 28.38,
      "lon": -16.57,
      "events": 113,
      "unique_balizas": 4,
      "main_carretera": "TF-326",
      "main_municipio": "Los Realejos",
      "main_provincia": "Santa Cruz de Tenerife",
      "main_comunidad": "Canarias"
    },
    {
      "lat": 43.3,
      "lon": -8.32,
      "events": 113,
      "unique_balizas": 4,
      "main_carretera": "AC-214",
      "main_municipio": "Cambre",
      "main_provincia": "A Coruña",
      "main_comunidad": "Galicia"
    },
    {
      "lat": 37.15,
      "lon": -3.6,
      "events": 113,
      "unique_balizas": 2,
      "main_carretera": "A-395",
      "main_municipio": "Granada",
      "main_provincia": "Granada",
      "main_comunidad": "Andalucía"
    },
    {
      "lat": 37.38,
      "lon": -6.05,
      "events": 113,
      "unique_balizas": 4,
      "main_carretera": "A-49",
      "main_municipio": "Castilleja de la Cuesta",
      "main_provincia": "Sevilla",
      "main_comunidad": "Andalucía"
    },
    {
      "lat": 43.49,
      "lon": -8.21,
      "events": 113,
      "unique_balizas": 4,
      "main_carretera": "FE-13",
      "main_municipio": "Ferrol",
      "main_provincia": "A Coruña",
      "main_comunidad": "Galicia"
    },
    {
      "lat": 40.13,
      "lon": -3.85,
      "events": 113,
      "unique_balizas": 2,
      "main_carretera": "CM-4008",
      "main_municipio": "Illescas",
      "main_provincia": "Toledo",
      "main_comunidad": "Castilla-La Mancha"
    },
    {
      "lat": 36.42,
      "lon": -6.12,
      "events": 112,
      "unique_balizas": 4,
      "main_carretera": "A-390R",
      "main_municipio": "Chiclana de la Frontera",
      "main_provincia": "Cádiz",
      "main_comunidad": "Andalucía"
    },
    {
      "lat": 40.4,
      "lon": -3.65,
      "events": 112,
      "unique_balizas": 6,
      "main_carretera": "A-3",
      "main_municipio": "Madrid",
      "main_provincia": "Madrid",
      "main_comunidad": "Comunidad de Madrid"
    },
    {
      "lat": 41.47,
      "lon": 1.95,
      "events": 112,
      "unique_balizas": 2,
      "main_carretera": "A-2",
      "main_municipio": "Castellbisbal",
      "main_provincia": "Barcelona",
      "main_comunidad": "Cataluña"
    },
    {
      "lat": 36.75,
      "lon": -4.43,
      "events": 112,
      "unique_balizas": 3,
      "main_carretera": "A-45",
      "main_municipio": "Málaga",
      "main_provincia": "Málaga",
      "main_comunidad": "Andalucía"
    },
    {
      "lat": 37.9,
      "lon": -4.4,
      "events": 112,
      "unique_balizas": 2,
      "main_carretera": "A-306",
      "main_municipio": "Bujalance",
      "main_provincia": "Córdoba",
      "main_comunidad": "Andalucía"
    },
    {
      "lat": 37.4,
      "lon": -7.01,
      "events": 112,
      "unique_balizas": 4,
      "main_carretera": "A-495",
      "main_municipio": "Gibraleón",
      "main_provincia": "Huelva",
      "main_comunidad": "Andalucía"
    },
    {
      "lat": 28.06,
      "lon": -15.44,
      "events": 112,
      "unique_balizas": 5,
      "main_carretera": "GC-3",
      "main_municipio": "Las Palmas de Gran Canaria",
      "main_provincia": "Las Palmas",
      "main_comunidad": "Canarias"
    },
    {
      "lat": 28.05,
      "lon": -15.41,
      "events": 111,
      "unique_balizas": 2,
      "main_carretera": "GC-1",
      "main_municipio": "Las Palmas de Gran Canaria",
      "main_provincia": "Las Palmas",
      "main_comunidad": "Canarias"
    },
    {
      "lat": 37.39,
      "lon": -5.93,
      "events": 111,
      "unique_balizas": 4,
      "main_carretera": "A-92",
      "main_municipio": "Sevilla",
      "main_provincia": "Sevilla",
      "main_comunidad": "Andalucía"
    },
    {
      "lat": 40.32,
      "lon": -3.74,
      "events": 111,
      "unique_balizas": 4,
      "main_carretera": "M-406",
      "main_municipio": "Getafe",
      "main_provincia": "Madrid",
      "main_comunidad": "Comunidad de Madrid"
    },
    {
      "lat": 37.89,
      "lon": -5.77,
      "events": 111,
      "unique_balizas": 2,
      "main_carretera": "A-432",
      "main_municipio": "Cazalla de la Sierra",
      "main_provincia": "Sevilla",
      "main_comunidad": "Andalucía"
    },
    {
      "lat": 40.45,
      "lon": -3.6,
      "events": 110,
      "unique_balizas": 4,
      "main_carretera": "M-40",
      "main_municipio": "Madrid",
      "main_provincia": "Madrid",
      "main_comunidad": "Comunidad de Madrid"
    },
    {
      "lat": 39.53,
      "lon": -0.44,
      "events": 110,
      "unique_balizas": 4,
      "main_carretera": "CV-35",
      "main_municipio": "Paterna",
      "main_provincia": "València/Valencia",
      "main_comunidad": "Comunitat Valenciana"
    },
    {
      "lat": 28.13,
      "lon": -16.75,
      "events": 110,
      "unique_balizas": 3,
      "main_carretera": "TF-47",
      "main_municipio": "Adeje",
      "main_provincia": "Santa Cruz de Tenerife",
      "main_comunidad": "Canarias"
    },
    {
      "lat": 39.27,
      "lon": -0.41,
      "events": 110,
      "unique_balizas": 3,
      "main_carretera": "AP-7",
      "main_municipio": "Almussafes",
      "main_provincia": "València/Valencia",
      "main_comunidad": "Comunitat Valenciana"
    },
    {
      "lat": 41.05,
      "lon": 0.97,
      "events": 110,
      "unique_balizas": 2,
      "main_carretera": "AP-7",
      "main_municipio": "Mont-roig del Camp",
      "main_provincia": "Tarragona",
      "main_comunidad": "Cataluña"
    },
    {
      "lat": 42.41,
      "lon": -1.71,
      "events": 109,
      "unique_balizas": 3,
      "main_carretera": "AP-15",
      "main_municipio": "Olite/Erriberri",
      "main_provincia": "Navarra",
      "main_comunidad": "Comunidad Foral de Navarra"
    },
    {
      "lat": 28.0,
      "lon": -15.57,
      "events": 109,
      "unique_balizas": 2,
      "main_carretera": "GC-15",
      "main_municipio": "Vega de San Mateo",
      "main_provincia": "Las Palmas",
      "main_comunidad": "Canarias"
    },
    {
      "lat": 41.35,
      "lon": -5.18,
      "events": 109,
      "unique_balizas": 2,
      "main_carretera": "A-62",
      "main_municipio": "Siete Iglesias de Trabancos",
      "main_provincia": "Valladolid",
      "main_comunidad": "Castilla y León"
    },
    {
      "lat": 28.15,
      "lon": -15.53,
      "events": 109,
      "unique_balizas": 4,
      "main_carretera": "GC-331",
      "main_municipio": "Arucas",
      "main_provincia": "Las Palmas",
      "main_comunidad": "Canarias"
    },
    {
      "lat": 28.06,
      "lon": -16.69,
      "events": 109,
      "unique_balizas": 5,
      "main_carretera": "TF-1",
      "main_municipio": "Arona",
      "main_provincia": "Santa Cruz de Tenerife",
      "main_comunidad": "Canarias"
    },
    {
      "lat": 43.41,
      "lon": -5.8,
      "events": 109,
      "unique_balizas": 4,
      "main_carretera": "AS-17",
      "main_municipio": "Siero",
      "main_provincia": "Asturias",
      "main_comunidad": "Principado de Asturias"
    },
    {
      "lat": 40.43,
      "lon": -3.81,
      "events": 109,
      "unique_balizas": 2,
      "main_carretera": "M-503",
      "main_municipio": "Pozuelo de Alarcón",
      "main_provincia": "Madrid",
      "main_comunidad": "Comunidad de Madrid"
    },
    {
      "lat": 39.31,
      "lon": -0.4,
      "events": 109,
      "unique_balizas": 2,
      "main_carretera": "AP-7",
      "main_municipio": "Sollana",
      "main_provincia": "València/Valencia",
      "main_comunidad": "Comunitat Valenciana"
    },
    {
      "lat": 39.16,
      "lon": -3.39,
      "events": 109,
      "unique_balizas": 2,
      "main_carretera": "A-4",
      "main_municipio": "Herencia",
      "main_provincia": "Ciudad Real",
      "main_comunidad": "Castilla-La Mancha"
    },
    {
      "lat": 43.34,
      "lon": -8.4,
      "events": 109,
      "unique_balizas": 5,
      "main_carretera": "AC-10",
      "main_municipio": "A Coruña",
      "main_provincia": "A Coruña",
      "main_comunidad": "Galicia"
    },
    {
      "lat": 42.93,
      "lon": -8.48,
      "events": 109,
      "unique_balizas": 3,
      "main_carretera": "N-550",
      "main_municipio": "Santiago de Compostela",
      "main_provincia": "A Coruña",
      "main_comunidad": "Galicia"
    },
    {
      "lat": 37.79,
      "lon": -3.78,
      "events": 109,
      "unique_balizas": 4,
      "main_carretera": "N-323",
      "main_municipio": "Jaén",
      "main_provincia": "Jaén",
      "main_comunidad": "Andalucía"
    },
    {
      "lat": 37.83,
      "lon": -4.79,
      "events": 109,
      "unique_balizas": 4,
      "main_carretera": "A-4",
      "main_municipio": "Córdoba",
      "main_provincia": "Córdoba",
      "main_comunidad": "Andalucía"
    },
    {
      "lat": 43.16,
      "lon": -7.69,
      "events": 108,
      "unique_balizas": 3,
      "main_carretera": "A-6",
      "main_municipio": "Begonte",
      "main_provincia": "Lugo",
      "main_comunidad": "Galicia"
    },
    {
      "lat": 38.43,
      "lon": -1.87,
      "events": 108,
      "unique_balizas": 3,
      "main_carretera": "AB-408",
      "main_municipio": "Férez",
      "main_provincia": "Albacete",
      "main_comunidad": "Castilla-La Mancha"
    },
    {
      "lat": 41.89,
      "lon": -1.42,
      "events": 108,
      "unique_balizas": 2,
      "main_carretera": "AP-68",
      "main_municipio": "Mallén",
      "main_provincia": "Zaragoza",
      "main_comunidad": "Aragón"
    },
    {
      "lat": 40.62,
      "lon": -3.99,
      "events": 108,
      "unique_balizas": 3,
      "main_carretera": "A-6",
      "main_municipio": "Collado Villalba",
      "main_provincia": "Madrid",
      "main_comunidad": "Comunidad de Madrid"
    },
    {
      "lat": 37.66,
      "lon": -5.53,
      "events": 108,
      "unique_balizas": 4,
      "main_carretera": "A-457R1",
      "main_municipio": "Lora del Río",
      "main_provincia": "Sevilla",
      "main_comunidad": "Andalucía"
    },
    {
      "lat": 40.37,
      "lon": -3.8,
      "events": 108,
      "unique_balizas": 4,
      "main_carretera": "A-5",
      "main_municipio": "Madrid",
      "main_provincia": "Madrid",
      "main_comunidad": "Comunidad de Madrid"
    },
    {
      "lat": 43.42,
      "lon": -3.84,
      "events": 107,
      "unique_balizas": 4,
      "main_carretera": "S-10",
      "main_municipio": "Camargo",
      "main_provincia": "Cantabria",
      "main_comunidad": "Cantabria"
    },
    {
      "lat": 43.28,
      "lon": -5.81,
      "events": 107,
      "unique_balizas": 2,
      "main_carretera": "A-66",
      "main_municipio": "Mieres",
      "main_provincia": "Asturias",
      "main_comunidad": "Principado de Asturias"
    },
    {
      "lat": 37.34,
      "lon": -1.97,
      "events": 107,
      "unique_balizas": 2,
      "main_carretera": "A-7",
      "main_municipio": "Huércal-Overa",
      "main_provincia": "Almería",
      "main_comunidad": "Andalucía"
    },
    {
      "lat": 40.37,
      "lon": -3.68,
      "events": 107,
      "unique_balizas": 4,
      "main_carretera": "A-4",
      "main_municipio": "Madrid",
      "main_provincia": "Madrid",
      "main_comunidad": "Comunidad de Madrid"
    },
    {
      "lat": 37.22,
      "lon": -5.92,
      "events": 107,
      "unique_balizas": 2,
      "main_carretera": "A-4",
      "main_municipio": "Alcalá de Guadaíra",
      "main_provincia": "Sevilla",
      "main_comunidad": "Andalucía"
    },
    {
      "lat": 40.34,
      "lon": -3.67,
      "events": 107,
      "unique_balizas": 4,
      "main_carretera": "M-301",
      "main_municipio": "Madrid",
      "main_provincia": "Madrid",
      "main_comunidad": "Comunidad de Madrid"
    },
    {
      "lat": 40.41,
      "lon": -3.75,
      "events": 107,
      "unique_balizas": 4,
      "main_carretera": "A-5",
      "main_municipio": "Madrid",
      "main_provincia": "Madrid",
      "main_comunidad": "Comunidad de Madrid"
    },
    {
      "lat": 36.81,
      "lon": -2.65,
      "events": 107,
      "unique_balizas": 4,
      "main_carretera": "A-7",
      "main_municipio": "Vícar",
      "main_provincia": "Almería",
      "main_comunidad": "Andalucía"
    },
    {
      "lat": 36.75,
      "lon": -3.96,
      "events": 107,
      "unique_balizas": 4,
      "main_carretera": "A-7207",
      "main_municipio": "Torrox",
      "main_provincia": "Málaga",
      "main_comunidad": "Andalucía"
    },
    {
      "lat": 40.32,
      "lon": -4.38,
      "events": 107,
      "unique_balizas": 2,
      "main_carretera": "N-403",
      "main_municipio": "San Martín de Valdeiglesias",
      "main_provincia": "Madrid",
      "main_comunidad": "Comunidad de Madrid"
    },
    {
      "lat": 40.24,
      "lon": -3.74,
      "events": 106,
      "unique_balizas": 4,
      "main_carretera": "M-408",
      "main_municipio": "Parla",
      "main_provincia": "Madrid",
      "main_comunidad": "Comunidad de Madrid"
    },
    {
      "lat": 41.35,
      "lon": 2.06,
      "events": 106,
      "unique_balizas": 3,
      "main_carretera": "A-2",
      "main_municipio": "Sant Joan Despí",
      "main_provincia": "Barcelona",
      "main_comunidad": "Cataluña"
    },
    {
      "lat": 37.35,
      "lon": -6.6,
      "events": 106,
      "unique_balizas": 3,
      "main_carretera": "A-49",
      "main_municipio": "Villarrasa",
      "main_provincia": "Huelva",
      "main_comunidad": "Andalucía"
    },
    {
      "lat": 42.26,
      "lon": -2.63,
      "events": 106,
      "unique_balizas": 4,
      "main_carretera": "LR-340",
      "main_municipio": "Torrecilla en Cameros",
      "main_provincia": "La Rioja",
      "main_comunidad": "Rioja, La"
    },
    {
      "lat": 28.05,
      "lon": -16.65,
      "events": 106,
      "unique_balizas": 3,
      "main_carretera": "TF-1",
      "main_municipio": "Arona",
      "main_provincia": "Santa Cruz de Tenerife",
      "main_comunidad": "Canarias"
    },
    {
      "lat": 40.47,
      "lon": -3.8,
      "events": 106,
      "unique_balizas": 5,
      "main_carretera": "A-6",
      "main_municipio": "Madrid",
      "main_provincia": "Madrid",
      "main_comunidad": "Comunidad de Madrid"
    },
    {
      "lat": 43.55,
      "lon": -8.17,
      "events": 106,
      "unique_balizas": 3,
      "main_carretera": "AC-566",
      "main_municipio": "Valdoviño",
      "main_provincia": "A Coruña",
      "main_comunidad": "Galicia"
    },
    {
      "lat": 42.18,
      "lon": 2.49,
      "events": 106,
      "unique_balizas": 3,
      "main_carretera": "GI-524",
      "main_municipio": "Olot",
      "main_provincia": "Girona",
      "main_comunidad": "Cataluña"
    },